[
    {
    "Code": 110000,
    "Province": "北京市",
    "City": "",
    "District": "",
    "Lng": 116.39564503787867,
    "Lat": 39.92998577808024
    },
    {
    "Code": 110100,
    "Province": "北京市",
    "City": "市辖区",
    "District": "",
    "Lng": 116.39564503787867,
    "Lat": 39.92998577808024
    },
    {
    "Code": 110101,
    "Province": "北京市",
    "City": "市辖区",
    "District": "东城区",
    "Lng": 116.42188470126446,
    "Lat": 39.93857401298612
    },
    {
    "Code": 110102,
    "Province": "北京市",
    "City": "市辖区",
    "District": "西城区",
    "Lng": 116.37319010401802,
    "Lat": 39.93428014370851
    },
    {
    "Code": 110105,
    "Province": "北京市",
    "City": "市辖区",
    "District": "朝阳区",
    "Lng": 116.52169489108084,
    "Lat": 39.95895316640668
    },
    {
    "Code": 110106,
    "Province": "北京市",
    "City": "市辖区",
    "District": "丰台区",
    "Lng": 116.2583703354677,
    "Lat": 39.84193785220474
    },
    {
    "Code": 110107,
    "Province": "北京市",
    "City": "市辖区",
    "District": "石景山区",
    "Lng": 116.18455581036746,
    "Lat": 39.93886654464553
    },
    {
    "Code": 110108,
    "Province": "北京市",
    "City": "市辖区",
    "District": "海淀区",
    "Lng": 116.23967780102151,
    "Lat": 40.03316204507791
    },
    {
    "Code": 110109,
    "Province": "北京市",
    "City": "市辖区",
    "District": "门头沟区",
    "Lng": 115.79579538125097,
    "Lat": 40.000893031476494
    },
    {
    "Code": 110111,
    "Province": "北京市",
    "City": "市辖区",
    "District": "房山区",
    "Lng": 115.86283631290442,
    "Lat": 39.72675262079634
    },
    {
    "Code": 110112,
    "Province": "北京市",
    "City": "市辖区",
    "District": "通州区",
    "Lng": 116.74007918067626,
    "Lat": 39.80981488385131
    },
    {
    "Code": 110113,
    "Province": "北京市",
    "City": "市辖区",
    "District": "顺义区",
    "Lng": 116.72822904528138,
    "Lat": 40.154951470441354
    },
    {
    "Code": 110114,
    "Province": "北京市",
    "City": "市辖区",
    "District": "昌平区",
    "Lng": 116.21645635689414,
    "Lat": 40.2217235498323
    },
    {
    "Code": 110115,
    "Province": "北京市",
    "City": "市辖区",
    "District": "大兴区",
    "Lng": 116.42519459737913,
    "Lat": 39.652790118364464
    },
    {
    "Code": 110116,
    "Province": "北京市",
    "City": "市辖区",
    "District": "怀柔区",
    "Lng": 116.59340835643431,
    "Lat": 40.63813934031092
    },
    {
    "Code": 110117,
    "Province": "北京市",
    "City": "市辖区",
    "District": "平谷区",
    "Lng": 117.15043344819173,
    "Lat": 40.21592545389569
    },
    {
    "Code": 110118,
    "Province": "北京市",
    "City": "市辖区",
    "District": "密云区",
    "Lng": 117.00120053501465,
    "Lat": 40.532843361005
    },
    {
    "Code": 110119,
    "Province": "北京市",
    "City": "市辖区",
    "District": "延庆区",
    "Lng": 116.16973528629558,
    "Lat": 40.545156469742075
    },
    {
    "Code": 120000,
    "Province": "天津市",
    "City": "",
    "District": "",
    "Lng": 117.21081309155257,
    "Lat": 39.143929903310074
    },
    {
    "Code": 120100,
    "Province": "天津市",
    "City": "市辖区",
    "District": "",
    "Lng": 117.21081309155257,
    "Lat": 39.143929903310074
    },
    {
    "Code": 120101,
    "Province": "天津市",
    "City": "市辖区",
    "District": "和平区",
    "Lng": 117.20281365402627,
    "Lat": 39.12480884470283
    },
    {
    "Code": 120102,
    "Province": "天津市",
    "City": "市辖区",
    "District": "河东区",
    "Lng": 117.2616931652718,
    "Lat": 39.12662568466626
    },
    {
    "Code": 120103,
    "Province": "天津市",
    "City": "市辖区",
    "District": "河西区",
    "Lng": 117.23616545061846,
    "Lat": 39.08449373961522
    },
    {
    "Code": 120104,
    "Province": "天津市",
    "City": "市辖区",
    "District": "南开区",
    "Lng": 117.16272794945209,
    "Lat": 39.11698728552219
    },
    {
    "Code": 120105,
    "Province": "天津市",
    "City": "市辖区",
    "District": "河北区",
    "Lng": 117.2202967650772,
    "Lat": 39.17314893392419
    },
    {
    "Code": 120106,
    "Province": "天津市",
    "City": "市辖区",
    "District": "红桥区",
    "Lng": 117.16221680791986,
    "Lat": 39.17062133122504
    },
    {
    "Code": 120110,
    "Province": "天津市",
    "City": "市辖区",
    "District": "东丽区",
    "Lng": 117.41478234324515,
    "Lat": 39.13960464277469
    },
    {
    "Code": 120111,
    "Province": "天津市",
    "City": "市辖区",
    "District": "西青区",
    "Lng": 117.12620134664701,
    "Lat": 39.03506461148468
    },
    {
    "Code": 120112,
    "Province": "天津市",
    "City": "市辖区",
    "District": "津南区",
    "Lng": 117.39290995971812,
    "Lat": 38.96979053272527
    },
    {
    "Code": 120113,
    "Province": "天津市",
    "City": "市辖区",
    "District": "北辰区",
    "Lng": 117.18060609828129,
    "Lat": 39.25913062597893
    },
    {
    "Code": 120114,
    "Province": "天津市",
    "City": "市辖区",
    "District": "武清区",
    "Lng": 117.0345779137272,
    "Lat": 39.457042575494015
    },
    {
    "Code": 120115,
    "Province": "天津市",
    "City": "市辖区",
    "District": "宝坻区",
    "Lng": 117.41142059078038,
    "Lat": 39.61554400413299
    },
    {
    "Code": 120116,
    "Province": "天津市",
    "City": "市辖区",
    "District": "滨海新区",
    "Lng": 117.64628627057449,
    "Lat": 39.05917663803484
    },
    {
    "Code": 120117,
    "Province": "天津市",
    "City": "市辖区",
    "District": "宁河区",
    "Lng": 117.68942402507139,
    "Lat": 39.38156099601735
    },
    {
    "Code": 120118,
    "Province": "天津市",
    "City": "市辖区",
    "District": "静海区",
    "Lng": 116.97277226162211,
    "Lat": 38.861262144345105
    },
    {
    "Code": 120119,
    "Province": "天津市",
    "City": "市辖区",
    "District": "蓟州区",
    "Lng": 117.21081309155257,
    "Lat": 39.143929903310074
    },
    {
    "Code": 130000,
    "Province": "河北省",
    "City": "",
    "District": "",
    "Lng": 115.66143362422224,
    "Lat": 38.61383974925108
    },
    {
    "Code": 130100,
    "Province": "河北省",
    "City": "石家庄市",
    "District": "",
    "Lng": 114.52208184420766,
    "Lat": 38.048958314615454
    },
    {
    "Code": 130101,
    "Province": "河北省",
    "City": "石家庄市",
    "District": "市辖区",
    "Lng": 114.52208184420766,
    "Lat": 38.048958314615454
    },
    {
    "Code": 130102,
    "Province": "河北省",
    "City": "石家庄市",
    "District": "长安区",
    "Lng": 114.59262155387033,
    "Lat": 38.07687479578663
    },
    {
    "Code": 130104,
    "Province": "河北省",
    "City": "石家庄市",
    "District": "桥西区",
    "Lng": 114.43813995531943,
    "Lat": 38.033364550068136
    },
    {
    "Code": 130105,
    "Province": "河北省",
    "City": "石家庄市",
    "District": "新华区",
    "Lng": 114.4535014286928,
    "Lat": 38.117218640478164
    },
    {
    "Code": 130107,
    "Province": "河北省",
    "City": "石家庄市",
    "District": "井陉矿区",
    "Lng": 114.05074376291131,
    "Lat": 38.08109756115976
    },
    {
    "Code": 130108,
    "Province": "河北省",
    "City": "石家庄市",
    "District": "裕华区",
    "Lng": 114.58638255261188,
    "Lat": 38.014621045711564
    },
    {
    "Code": 130109,
    "Province": "河北省",
    "City": "石家庄市",
    "District": "藁城区",
    "Lng": 114.8164757998705,
    "Lat": 38.054936382140376
    },
    {
    "Code": 130110,
    "Province": "河北省",
    "City": "石家庄市",
    "District": "鹿泉区",
    "Lng": 114.34732259892868,
    "Lat": 38.084706825487906
    },
    {
    "Code": 130111,
    "Province": "河北省",
    "City": "石家庄市",
    "District": "栾城区",
    "Lng": 114.63296782939916,
    "Lat": 37.906160805370604
    },
    {
    "Code": 130121,
    "Province": "河北省",
    "City": "石家庄市",
    "District": "井陉县",
    "Lng": 114.07795206334612,
    "Lat": 38.00089081581098
    },
    {
    "Code": 130123,
    "Province": "河北省",
    "City": "石家庄市",
    "District": "正定县",
    "Lng": 114.570201323482,
    "Lat": 38.22707253547888
    },
    {
    "Code": 130125,
    "Province": "河北省",
    "City": "石家庄市",
    "District": "行唐县",
    "Lng": 114.45743612436708,
    "Lat": 38.54669530138655
    },
    {
    "Code": 130126,
    "Province": "河北省",
    "City": "石家庄市",
    "District": "灵寿县",
    "Lng": 114.18781898136918,
    "Lat": 38.51093598541389
    },
    {
    "Code": 130127,
    "Province": "河北省",
    "City": "石家庄市",
    "District": "高邑县",
    "Lng": 114.60738469340112,
    "Lat": 37.62265087075653
    },
    {
    "Code": 130128,
    "Province": "河北省",
    "City": "石家庄市",
    "District": "深泽县",
    "Lng": 115.2331024279265,
    "Lat": 38.194680827355405
    },
    {
    "Code": 130129,
    "Province": "河北省",
    "City": "石家庄市",
    "District": "赞皇县",
    "Lng": 114.28955340433097,
    "Lat": 37.62813245296578
    },
    {
    "Code": 130130,
    "Province": "河北省",
    "City": "石家庄市",
    "District": "无极县",
    "Lng": 114.95113960112629,
    "Lat": 38.18328602020015
    },
    {
    "Code": 130131,
    "Province": "河北省",
    "City": "石家庄市",
    "District": "平山县",
    "Lng": 113.87242852701142,
    "Lat": 38.40876219172478
    },
    {
    "Code": 130132,
    "Province": "河北省",
    "City": "石家庄市",
    "District": "元氏县",
    "Lng": 114.42836015628082,
    "Lat": 37.807352641009125
    },
    {
    "Code": 130133,
    "Province": "河北省",
    "City": "石家庄市",
    "District": "赵县",
    "Lng": 114.83493823755897,
    "Lat": 37.76961244836501
    },
    {
    "Code": 130183,
    "Province": "河北省",
    "City": "石家庄市",
    "District": "晋州市",
    "Lng": 115.09173828063928,
    "Lat": 37.991145102246215
    },
    {
    "Code": 130184,
    "Province": "河北省",
    "City": "石家庄市",
    "District": "新乐市",
    "Lng": 114.76227076682582,
    "Lat": 38.37757802583929
    },
    {
    "Code": 130200,
    "Province": "河北省",
    "City": "唐山市",
    "District": "",
    "Lng": 118.18345059773411,
    "Lat": 39.6505309225366
    },
    {
    "Code": 130201,
    "Province": "河北省",
    "City": "唐山市",
    "District": "市辖区",
    "Lng": 118.18345059773411,
    "Lat": 39.6505309225366
    },
    {
    "Code": 130202,
    "Province": "河北省",
    "City": "唐山市",
    "District": "路南区",
    "Lng": 118.20604028639353,
    "Lat": 39.6129869967351
    },
    {
    "Code": 130203,
    "Province": "河北省",
    "City": "唐山市",
    "District": "路北区",
    "Lng": 118.18506997307696,
    "Lat": 39.65784568002943
    },
    {
    "Code": 130204,
    "Province": "河北省",
    "City": "唐山市",
    "District": "古冶区",
    "Lng": 118.46223153817563,
    "Lat": 39.723044780377755
    },
    {
    "Code": 130205,
    "Province": "河北省",
    "City": "唐山市",
    "District": "开平区",
    "Lng": 118.25784790074829,
    "Lat": 39.69212342084615
    },
    {
    "Code": 130207,
    "Province": "河北省",
    "City": "唐山市",
    "District": "丰南区",
    "Lng": 118.08584709898903,
    "Lat": 39.38466274859299
    },
    {
    "Code": 130208,
    "Province": "河北省",
    "City": "唐山市",
    "District": "丰润区",
    "Lng": 118.05949036617352,
    "Lat": 39.78990941033889
    },
    {
    "Code": 130209,
    "Province": "河北省",
    "City": "唐山市",
    "District": "曹妃甸区",
    "Lng": 118.41596118318783,
    "Lat": 39.26603784107154
    },
    {
    "Code": 130223,
    "Province": "河北省",
    "City": "唐山市",
    "District": "滦县",
    "Lng": 118.58377725189884,
    "Lat": 39.785508848228524
    },
    {
    "Code": 130224,
    "Province": "河北省",
    "City": "唐山市",
    "District": "滦南县",
    "Lng": 118.54938466455619,
    "Lat": 39.36073889990078
    },
    {
    "Code": 130225,
    "Province": "河北省",
    "City": "唐山市",
    "District": "乐亭县",
    "Lng": 118.93994305703049,
    "Lat": 39.35722889189613
    },
    {
    "Code": 130227,
    "Province": "河北省",
    "City": "唐山市",
    "District": "迁西县",
    "Lng": 118.37138905433555,
    "Lat": 40.238507660812054
    },
    {
    "Code": 130229,
    "Province": "河北省",
    "City": "唐山市",
    "District": "玉田县",
    "Lng": 117.73475264490037,
    "Lat": 39.81884335578796
    },
    {
    "Code": 130281,
    "Province": "河北省",
    "City": "唐山市",
    "District": "遵化市",
    "Lng": 117.9576391276162,
    "Lat": 40.13790106402117
    },
    {
    "Code": 130283,
    "Province": "河北省",
    "City": "唐山市",
    "District": "迁安市",
    "Lng": 118.68695461732042,
    "Lat": 40.04044251326034
    },
    {
    "Code": 130300,
    "Province": "河北省",
    "City": "秦皇岛市",
    "District": "",
    "Lng": 119.6043676161184,
    "Lat": 39.945461565897574
    },
    {
    "Code": 130301,
    "Province": "河北省",
    "City": "秦皇岛市",
    "District": "市辖区",
    "Lng": 119.6043676161184,
    "Lat": 39.945461565897574
    },
    {
    "Code": 130302,
    "Province": "河北省",
    "City": "秦皇岛市",
    "District": "海港区",
    "Lng": 119.57761724582842,
    "Lat": 39.98877957711658
    },
    {
    "Code": 130303,
    "Province": "河北省",
    "City": "秦皇岛市",
    "District": "山海关区",
    "Lng": 119.71361557969767,
    "Lat": 40.03289962810107
    },
    {
    "Code": 130304,
    "Province": "河北省",
    "City": "秦皇岛市",
    "District": "北戴河区",
    "Lng": 119.47932079421292,
    "Lat": 39.854292584186524
    },
    {
    "Code": 130306,
    "Province": "河北省",
    "City": "秦皇岛市",
    "District": "抚宁区",
    "Lng": 119.39510041233878,
    "Lat": 40.01296744149849
    },
    {
    "Code": 130321,
    "Province": "河北省",
    "City": "秦皇岛市",
    "District": "青龙满族自治县",
    "Lng": 119.13758245071998,
    "Lat": 40.35365030864839
    },
    {
    "Code": 130322,
    "Province": "河北省",
    "City": "秦皇岛市",
    "District": "昌黎县",
    "Lng": 119.09462149738174,
    "Lat": 39.63802116472844
    },
    {
    "Code": 130324,
    "Province": "河北省",
    "City": "秦皇岛市",
    "District": "卢龙县",
    "Lng": 118.98556414609303,
    "Lat": 39.92097845518615
    },
    {
    "Code": 130400,
    "Province": "河北省",
    "City": "邯郸市",
    "District": "",
    "Lng": 114.4826939323422,
    "Lat": 36.60930792847117
    },
    {
    "Code": 130401,
    "Province": "河北省",
    "City": "邯郸市",
    "District": "市辖区",
    "Lng": 114.4826939323422,
    "Lat": 36.60930792847117
    },
    {
    "Code": 130402,
    "Province": "河北省",
    "City": "邯郸市",
    "District": "邯山区",
    "Lng": 114.46928986667508,
    "Lat": 36.53615307893675
    },
    {
    "Code": 130403,
    "Province": "河北省",
    "City": "邯郸市",
    "District": "丛台区",
    "Lng": 114.51106763051926,
    "Lat": 36.63721481515195
    },
    {
    "Code": 130404,
    "Province": "河北省",
    "City": "邯郸市",
    "District": "复兴区",
    "Lng": 114.44809470748935,
    "Lat": 36.61036859222694
    },
    {
    "Code": 130406,
    "Province": "河北省",
    "City": "邯郸市",
    "District": "峰峰矿区",
    "Lng": 114.19042164993341,
    "Lat": 36.47468499742299
    },
    {
    "Code": 130421,
    "Province": "河北省",
    "City": "邯郸市",
    "District": "邯郸县",
    "Lng": 114.49448604232236,
    "Lat": 36.62034722106213
    },
    {
    "Code": 130423,
    "Province": "河北省",
    "City": "邯郸市",
    "District": "临漳县",
    "Lng": 114.58694416944023,
    "Lat": 36.266141946473816
    },
    {
    "Code": 130424,
    "Province": "河北省",
    "City": "邯郸市",
    "District": "成安县",
    "Lng": 114.70477468284857,
    "Lat": 36.42815064718614
    },
    {
    "Code": 130425,
    "Province": "河北省",
    "City": "邯郸市",
    "District": "大名县",
    "Lng": 115.24863464403913,
    "Lat": 36.3095437707563
    },
    {
    "Code": 130426,
    "Province": "河北省",
    "City": "邯郸市",
    "District": "涉县",
    "Lng": 113.74291352234147,
    "Lat": 36.5981045355726
    },
    {
    "Code": 130427,
    "Province": "河北省",
    "City": "邯郸市",
    "District": "磁县",
    "Lng": 114.25510074084815,
    "Lat": 36.40673060254672
    },
    {
    "Code": 130428,
    "Province": "河北省",
    "City": "邯郸市",
    "District": "肥乡县",
    "Lng": 114.83690510574364,
    "Lat": 36.57726088762066
    },
    {
    "Code": 130429,
    "Province": "河北省",
    "City": "邯郸市",
    "District": "永年县",
    "Lng": 114.6416019871825,
    "Lat": 36.770200181653436
    },
    {
    "Code": 130430,
    "Province": "河北省",
    "City": "邯郸市",
    "District": "邱县",
    "Lng": 115.20670231618584,
    "Lat": 36.7972697871432
    },
    {
    "Code": 130431,
    "Province": "河北省",
    "City": "邯郸市",
    "District": "鸡泽县",
    "Lng": 114.86956581383834,
    "Lat": 36.8736774898167
    },
    {
    "Code": 130432,
    "Province": "河北省",
    "City": "邯郸市",
    "District": "广平县",
    "Lng": 115.02087402113777,
    "Lat": 36.51192631392974
    },
    {
    "Code": 130433,
    "Province": "河北省",
    "City": "邯郸市",
    "District": "馆陶县",
    "Lng": 115.2991566258206,
    "Lat": 36.61853700578129
    },
    {
    "Code": 130434,
    "Province": "河北省",
    "City": "邯郸市",
    "District": "魏县",
    "Lng": 114.93600011897692,
    "Lat": 36.25056776109478
    },
    {
    "Code": 130435,
    "Province": "河北省",
    "City": "邯郸市",
    "District": "曲周县",
    "Lng": 115.03853247193365,
    "Lat": 36.75265126571866
    },
    {
    "Code": 130481,
    "Province": "河北省",
    "City": "邯郸市",
    "District": "武安市",
    "Lng": 114.05833396936403,
    "Lat": 36.74899547659651
    },
    {
    "Code": 130500,
    "Province": "河北省",
    "City": "邢台市",
    "District": "",
    "Lng": 114.52048681294414,
    "Lat": 37.069531196911996
    },
    {
    "Code": 130501,
    "Province": "河北省",
    "City": "邢台市",
    "District": "市辖区",
    "Lng": 114.52048681294414,
    "Lat": 37.069531196911996
    },
    {
    "Code": 130502,
    "Province": "河北省",
    "City": "邢台市",
    "District": "桥东区",
    "Lng": 114.52129744383635,
    "Lat": 37.05904625207306
    },
    {
    "Code": 130503,
    "Province": "河北省",
    "City": "邢台市",
    "District": "桥西区",
    "Lng": 114.46840126286459,
    "Lat": 37.053579664220926
    },
    {
    "Code": 130521,
    "Province": "河北省",
    "City": "邢台市",
    "District": "邢台县",
    "Lng": 114.16774440241458,
    "Lat": 37.15242169927538
    },
    {
    "Code": 130522,
    "Province": "河北省",
    "City": "邢台市",
    "District": "临城县",
    "Lng": 114.38466503754913,
    "Lat": 37.46313759161686
    },
    {
    "Code": 130523,
    "Province": "河北省",
    "City": "邢台市",
    "District": "内丘县",
    "Lng": 114.53062167536882,
    "Lat": 37.30052457969058
    },
    {
    "Code": 130524,
    "Province": "河北省",
    "City": "邢台市",
    "District": "柏乡县",
    "Lng": 114.70742434433781,
    "Lat": 37.51741841433831
    },
    {
    "Code": 130525,
    "Province": "河北省",
    "City": "邢台市",
    "District": "隆尧县",
    "Lng": 114.79291584706847,
    "Lat": 37.3646880835802
    },
    {
    "Code": 130526,
    "Province": "河北省",
    "City": "邢台市",
    "District": "任县",
    "Lng": 114.76996715970284,
    "Lat": 37.17463010175525
    },
    {
    "Code": 130527,
    "Province": "河北省",
    "City": "邢台市",
    "District": "南和县",
    "Lng": 114.7530893588285,
    "Lat": 37.01696387437857
    },
    {
    "Code": 130528,
    "Province": "河北省",
    "City": "邢台市",
    "District": "宁晋县",
    "Lng": 115.0216784372147,
    "Lat": 37.612086758173035
    },
    {
    "Code": 130529,
    "Province": "河北省",
    "City": "邢台市",
    "District": "巨鹿县",
    "Lng": 115.05888578855014,
    "Lat": 37.2786792970841
    },
    {
    "Code": 130530,
    "Province": "河北省",
    "City": "邢台市",
    "District": "新河县",
    "Lng": 115.25720361983953,
    "Lat": 37.49936256733351
    },
    {
    "Code": 130531,
    "Province": "河北省",
    "City": "邢台市",
    "District": "广宗县",
    "Lng": 115.19817308929126,
    "Lat": 37.08354869240554
    },
    {
    "Code": 130532,
    "Province": "河北省",
    "City": "邢台市",
    "District": "平乡县",
    "Lng": 115.0048185470862,
    "Lat": 37.056110207563535
    },
    {
    "Code": 130533,
    "Province": "河北省",
    "City": "邢台市",
    "District": "威县",
    "Lng": 115.38772530687282,
    "Lat": 37.078394650564825
    },
    {
    "Code": 130534,
    "Province": "河北省",
    "City": "邢台市",
    "District": "清河县",
    "Lng": 115.6915895160533,
    "Lat": 37.040529913617476
    },
    {
    "Code": 130535,
    "Province": "河北省",
    "City": "邢台市",
    "District": "临西县",
    "Lng": 115.52844117588303,
    "Lat": 36.85802735355574
    },
    {
    "Code": 130581,
    "Province": "河北省",
    "City": "邢台市",
    "District": "南宫市",
    "Lng": 115.47940958600971,
    "Lat": 37.28642741327499
    },
    {
    "Code": 130582,
    "Province": "河北省",
    "City": "邢台市",
    "District": "沙河市",
    "Lng": 114.28309250178685,
    "Lat": 36.93863545934609
    },
    {
    "Code": 130600,
    "Province": "河北省",
    "City": "保定市",
    "District": "",
    "Lng": 115.49481016907626,
    "Lat": 38.88656454802744
    },
    {
    "Code": 130601,
    "Province": "河北省",
    "City": "保定市",
    "District": "市辖区",
    "Lng": 115.49481016907626,
    "Lat": 38.88656454802744
    },
    {
    "Code": 130602,
    "Province": "河北省",
    "City": "保定市",
    "District": "竞秀区",
    "Lng": 115.49481016907626,
    "Lat": 38.88656454802744
    },
    {
    "Code": 130606,
    "Province": "河北省",
    "City": "保定市",
    "District": "莲池区",
    "Lng": 115.51172436352364,
    "Lat": 38.8750635237984
    },
    {
    "Code": 130607,
    "Province": "河北省",
    "City": "保定市",
    "District": "满城区",
    "Lng": 115.49481016907626,
    "Lat": 38.88656454802744
    },
    {
    "Code": 130608,
    "Province": "河北省",
    "City": "保定市",
    "District": "清苑区",
    "Lng": 115.49349195775315,
    "Lat": 38.7383356526206
    },
    {
    "Code": 130609,
    "Province": "河北省",
    "City": "保定市",
    "District": "徐水区",
    "Lng": 115.5796000652164,
    "Lat": 39.04187218938492
    },
    {
    "Code": 130623,
    "Province": "河北省",
    "City": "保定市",
    "District": "涞水县",
    "Lng": 115.44462792481454,
    "Lat": 39.616117563204725
    },
    {
    "Code": 130624,
    "Province": "河北省",
    "City": "保定市",
    "District": "阜平县",
    "Lng": 114.16421062386792,
    "Lat": 38.89480641121728
    },
    {
    "Code": 130626,
    "Province": "河北省",
    "City": "保定市",
    "District": "定兴县",
    "Lng": 115.75504588837723,
    "Lat": 39.211518314258704
    },
    {
    "Code": 130627,
    "Province": "河北省",
    "City": "保定市",
    "District": "唐县",
    "Lng": 114.80609127314982,
    "Lat": 38.90452113124948
    },
    {
    "Code": 130628,
    "Province": "河北省",
    "City": "保定市",
    "District": "高阳县",
    "Lng": 115.8384418838674,
    "Lat": 38.6730209002616
    },
    {
    "Code": 130629,
    "Province": "河北省",
    "City": "保定市",
    "District": "容城县",
    "Lng": 115.90877891487291,
    "Lat": 39.05781354953602
    },
    {
    "Code": 130630,
    "Province": "河北省",
    "City": "保定市",
    "District": "涞源县",
    "Lng": 114.73045121001118,
    "Lat": 39.3669367870307
    },
    {
    "Code": 130631,
    "Province": "河北省",
    "City": "保定市",
    "District": "望都县",
    "Lng": 115.17834559653627,
    "Lat": 38.67901497910385
    },
    {
    "Code": 130632,
    "Province": "河北省",
    "City": "保定市",
    "District": "安新县",
    "Lng": 115.8867310100507,
    "Lat": 38.8782552166
    },
    {
    "Code": 130633,
    "Province": "河北省",
    "City": "保定市",
    "District": "易县",
    "Lng": 115.25402170203208,
    "Lat": 39.31756605114426
    },
    {
    "Code": 130634,
    "Province": "河北省",
    "City": "保定市",
    "District": "曲阳县",
    "Lng": 114.66066397519262,
    "Lat": 38.70661221492098
    },
    {
    "Code": 130635,
    "Province": "河北省",
    "City": "保定市",
    "District": "蠡县",
    "Lng": 115.66928195752807,
    "Lat": 38.52823213602215
    },
    {
    "Code": 130636,
    "Province": "河北省",
    "City": "保定市",
    "District": "顺平县",
    "Lng": 115.07398905468821,
    "Lat": 38.92795137598545
    },
    {
    "Code": 130637,
    "Province": "河北省",
    "City": "保定市",
    "District": "博野县",
    "Lng": 115.48778569395974,
    "Lat": 38.45912314067235
    },
    {
    "Code": 130638,
    "Province": "河北省",
    "City": "保定市",
    "District": "雄县",
    "Lng": 116.18329894846163,
    "Lat": 39.042786858076674
    },
    {
    "Code": 130681,
    "Province": "河北省",
    "City": "保定市",
    "District": "涿州市",
    "Lng": 115.99905364071243,
    "Lat": 39.48248181057233
    },
    {
    "Code": 130683,
    "Province": "河北省",
    "City": "保定市",
    "District": "安国市",
    "Lng": 115.33482671533687,
    "Lat": 38.39373999035212
    },
    {
    "Code": 130684,
    "Province": "河北省",
    "City": "保定市",
    "District": "高碑店市",
    "Lng": 116.04093362477256,
    "Lat": 39.26508776483182
    },
    {
    "Code": 130700,
    "Province": "河北省",
    "City": "张家口市",
    "District": "",
    "Lng": 114.89378153032918,
    "Lat": 40.81118849110306
    },
    {
    "Code": 130701,
    "Province": "河北省",
    "City": "张家口市",
    "District": "市辖区",
    "Lng": 114.89378153032918,
    "Lat": 40.81118849110306
    },
    {
    "Code": 130702,
    "Province": "河北省",
    "City": "张家口市",
    "District": "桥东区",
    "Lng": 114.91516641163861,
    "Lat": 40.78291035024692
    },
    {
    "Code": 130703,
    "Province": "河北省",
    "City": "张家口市",
    "District": "桥西区",
    "Lng": 114.86162345069968,
    "Lat": 40.83764647974005
    },
    {
    "Code": 130705,
    "Province": "河北省",
    "City": "张家口市",
    "District": "宣化区",
    "Lng": 115.25847218770907,
    "Lat": 40.632394360148936
    },
    {
    "Code": 130706,
    "Province": "河北省",
    "City": "张家口市",
    "District": "下花园区",
    "Lng": 115.35049833098363,
    "Lat": 40.56883692865251
    },
    {
    "Code": 130708,
    "Province": "河北省",
    "City": "张家口市",
    "District": "万全区",
    "Lng": 114.61145271500068,
    "Lat": 40.847108211054426
    },
    {
    "Code": 130709,
    "Province": "河北省",
    "City": "张家口市",
    "District": "崇礼区",
    "Lng": 115.21989094471446,
    "Lat": 41.0260597175849
    },
    {
    "Code": 130722,
    "Province": "河北省",
    "City": "张家口市",
    "District": "张北县",
    "Lng": 114.77289736583953,
    "Lat": 41.293640752346136
    },
    {
    "Code": 130723,
    "Province": "河北省",
    "City": "张家口市",
    "District": "康保县",
    "Lng": 114.60653573475116,
    "Lat": 41.78459526909898
    },
    {
    "Code": 130724,
    "Province": "河北省",
    "City": "张家口市",
    "District": "沽源县",
    "Lng": 115.6360916492231,
    "Lat": 41.580403842568316
    },
    {
    "Code": 130725,
    "Province": "河北省",
    "City": "张家口市",
    "District": "尚义县",
    "Lng": 114.15252831523267,
    "Lat": 41.132634994489365
    },
    {
    "Code": 130726,
    "Province": "河北省",
    "City": "张家口市",
    "District": "蔚县",
    "Lng": 114.71253718703703,
    "Lat": 39.87935314783146
    },
    {
    "Code": 130727,
    "Province": "河北省",
    "City": "张家口市",
    "District": "阳原县",
    "Lng": 114.39439590666633,
    "Lat": 40.13864212021103
    },
    {
    "Code": 130728,
    "Province": "河北省",
    "City": "张家口市",
    "District": "怀安县",
    "Lng": 114.50260736694563,
    "Lat": 40.55953357513103
    },
    {
    "Code": 130730,
    "Province": "河北省",
    "City": "张家口市",
    "District": "怀来县",
    "Lng": 115.63406061974166,
    "Lat": 40.34798364385029
    },
    {
    "Code": 130731,
    "Province": "河北省",
    "City": "张家口市",
    "District": "涿鹿县",
    "Lng": 115.22392517513477,
    "Lat": 40.101875913480974
    },
    {
    "Code": 130732,
    "Province": "河北省",
    "City": "张家口市",
    "District": "赤城县",
    "Lng": 115.89222267195456,
    "Lat": 40.95602625953662
    },
    {
    "Code": 130800,
    "Province": "河北省",
    "City": "承德市",
    "District": "",
    "Lng": 117.93382245583847,
    "Lat": 40.992521052457136
    },
    {
    "Code": 130801,
    "Province": "河北省",
    "City": "承德市",
    "District": "市辖区",
    "Lng": 117.93382245583847,
    "Lat": 40.992521052457136
    },
    {
    "Code": 130802,
    "Province": "河北省",
    "City": "承德市",
    "District": "双桥区",
    "Lng": 117.9483552423789,
    "Lat": 40.971406352197
    },
    {
    "Code": 130803,
    "Province": "河北省",
    "City": "承德市",
    "District": "双滦区",
    "Lng": 117.80933581724904,
    "Lat": 41.05145316070315
    },
    {
    "Code": 130804,
    "Province": "河北省",
    "City": "承德市",
    "District": "鹰手营子矿区",
    "Lng": 117.67942626427491,
    "Lat": 40.53176028123406
    },
    {
    "Code": 130821,
    "Province": "河北省",
    "City": "承德市",
    "District": "承德县",
    "Lng": 118.12571829805464,
    "Lat": 40.97324218230024
    },
    {
    "Code": 130822,
    "Province": "河北省",
    "City": "承德市",
    "District": "兴隆县",
    "Lng": 117.72613599004742,
    "Lat": 40.45814168629515
    },
    {
    "Code": 130823,
    "Province": "河北省",
    "City": "承德市",
    "District": "平泉县",
    "Lng": 118.73932350857935,
    "Lat": 41.07530376870277
    },
    {
    "Code": 130824,
    "Province": "河北省",
    "City": "承德市",
    "District": "滦平县",
    "Lng": 117.36956340989389,
    "Lat": 40.924820741760996
    },
    {
    "Code": 130825,
    "Province": "河北省",
    "City": "承德市",
    "District": "隆化县",
    "Lng": 117.56992967904758,
    "Lat": 41.517994972230575
    },
    {
    "Code": 130826,
    "Province": "河北省",
    "City": "承德市",
    "District": "丰宁满族自治县",
    "Lng": 116.62379481267644,
    "Lat": 41.42568433518443
    },
    {
    "Code": 130827,
    "Province": "河北省",
    "City": "承德市",
    "District": "宽城满族自治县",
    "Lng": 118.63588822016969,
    "Lat": 40.5780903780955
    },
    {
    "Code": 130828,
    "Province": "河北省",
    "City": "承德市",
    "District": "围场满族蒙古族自治县",
    "Lng": 117.54702150524338,
    "Lat": 42.10802456586188
    },
    {
    "Code": 130900,
    "Province": "河北省",
    "City": "沧州市",
    "District": "",
    "Lng": 116.86380647644208,
    "Lat": 38.297615350325714
    },
    {
    "Code": 130901,
    "Province": "河北省",
    "City": "沧州市",
    "District": "市辖区",
    "Lng": 116.86380647644208,
    "Lat": 38.297615350325714
    },
    {
    "Code": 130902,
    "Province": "河北省",
    "City": "沧州市",
    "District": "新华区",
    "Lng": 116.89305880723845,
    "Lat": 38.30837533308444
    },
    {
    "Code": 130903,
    "Province": "河北省",
    "City": "沧州市",
    "District": "运河区",
    "Lng": 116.84485357763981,
    "Lat": 38.314446124595506
    },
    {
    "Code": 130921,
    "Province": "河北省",
    "City": "沧州市",
    "District": "沧县",
    "Lng": 116.86271383127912,
    "Lat": 38.30213869620715
    },
    {
    "Code": 130922,
    "Province": "河北省",
    "City": "沧州市",
    "District": "青县",
    "Lng": 116.85123400251861,
    "Lat": 38.56577832855556
    },
    {
    "Code": 130923,
    "Province": "河北省",
    "City": "沧州市",
    "District": "东光县",
    "Lng": 116.67783233647565,
    "Lat": 37.88745160368844
    },
    {
    "Code": 130924,
    "Province": "河北省",
    "City": "沧州市",
    "District": "海兴县",
    "Lng": 117.56726425887852,
    "Lat": 38.14247021690735
    },
    {
    "Code": 130925,
    "Province": "河北省",
    "City": "沧州市",
    "District": "盐山县",
    "Lng": 117.2669398963173,
    "Lat": 37.96036972410193
    },
    {
    "Code": 130926,
    "Province": "河北省",
    "City": "沧州市",
    "District": "肃宁县",
    "Lng": 115.88581610558234,
    "Lat": 38.42220712282884
    },
    {
    "Code": 130927,
    "Province": "河北省",
    "City": "沧州市",
    "District": "南皮县",
    "Lng": 116.86584977740382,
    "Lat": 38.02318570282536
    },
    {
    "Code": 130928,
    "Province": "河北省",
    "City": "沧州市",
    "District": "吴桥县",
    "Lng": 116.50803340730387,
    "Lat": 37.66186347209427
    },
    {
    "Code": 130929,
    "Province": "河北省",
    "City": "沧州市",
    "District": "献县",
    "Lng": 116.1755053023729,
    "Lat": 38.24272584047104
    },
    {
    "Code": 130930,
    "Province": "河北省",
    "City": "沧州市",
    "District": "孟村回族自治县",
    "Lng": 117.1595383854352,
    "Lat": 38.091264713341985
    },
    {
    "Code": 130981,
    "Province": "河北省",
    "City": "沧州市",
    "District": "泊头市",
    "Lng": 116.38923597744922,
    "Lat": 38.090278710884434
    },
    {
    "Code": 130982,
    "Province": "河北省",
    "City": "沧州市",
    "District": "任丘市",
    "Lng": 116.16321405193285,
    "Lat": 38.741104641109665
    },
    {
    "Code": 130983,
    "Province": "河北省",
    "City": "沧州市",
    "District": "黄骅市",
    "Lng": 117.40021701973511,
    "Lat": 38.40152184548731
    },
    {
    "Code": 130984,
    "Province": "河北省",
    "City": "沧州市",
    "District": "河间市",
    "Lng": 116.27159283892823,
    "Lat": 38.483721432478625
    },
    {
    "Code": 131000,
    "Province": "河北省",
    "City": "廊坊市",
    "District": "",
    "Lng": 116.70360222263986,
    "Lat": 39.51861062508462
    },
    {
    "Code": 131001,
    "Province": "河北省",
    "City": "廊坊市",
    "District": "市辖区",
    "Lng": 116.70360222263986,
    "Lat": 39.51861062508462
    },
    {
    "Code": 131002,
    "Province": "河北省",
    "City": "廊坊市",
    "District": "安次区",
    "Lng": 116.79612310880948,
    "Lat": 39.34531218063897
    },
    {
    "Code": 131003,
    "Province": "河北省",
    "City": "廊坊市",
    "District": "广阳区",
    "Lng": 116.69423648939282,
    "Lat": 39.53368553745463
    },
    {
    "Code": 131022,
    "Province": "河北省",
    "City": "廊坊市",
    "District": "固安县",
    "Lng": 116.28967015726496,
    "Lat": 39.35110594099413
    },
    {
    "Code": 131023,
    "Province": "河北省",
    "City": "廊坊市",
    "District": "永清县",
    "Lng": 116.56055697010446,
    "Lat": 39.30283643021088
    },
    {
    "Code": 131024,
    "Province": "河北省",
    "City": "廊坊市",
    "District": "香河县",
    "Lng": 117.05130555355426,
    "Lat": 39.74310003286535
    },
    {
    "Code": 131025,
    "Province": "河北省",
    "City": "廊坊市",
    "District": "大城县",
    "Lng": 116.58863867605716,
    "Lat": 38.668802703655814
    },
    {
    "Code": 131026,
    "Province": "河北省",
    "City": "廊坊市",
    "District": "文安县",
    "Lng": 116.49481687117816,
    "Lat": 38.911390482571576
    },
    {
    "Code": 131028,
    "Province": "河北省",
    "City": "廊坊市",
    "District": "大厂回族自治县",
    "Lng": 116.9550764486355,
    "Lat": 39.89531635508993
    },
    {
    "Code": 131081,
    "Province": "河北省",
    "City": "廊坊市",
    "District": "霸州市",
    "Lng": 116.5743059897649,
    "Lat": 39.10932007905548
    },
    {
    "Code": 131082,
    "Province": "河北省",
    "City": "廊坊市",
    "District": "三河市",
    "Lng": 117.02128418408721,
    "Lat": 39.96742764877024
    },
    {
    "Code": 131100,
    "Province": "河北省",
    "City": "衡水市",
    "District": "",
    "Lng": 115.68622865290865,
    "Lat": 37.74692904585666
    },
    {
    "Code": 131101,
    "Province": "河北省",
    "City": "衡水市",
    "District": "市辖区",
    "Lng": 115.68622865290865,
    "Lat": 37.74692904585666
    },
    {
    "Code": 131102,
    "Province": "河北省",
    "City": "衡水市",
    "District": "桃城区",
    "Lng": 115.66665700011858,
    "Lat": 37.724217886080204
    },
    {
    "Code": 131103,
    "Province": "河北省",
    "City": "衡水市",
    "District": "冀州区",
    "Lng": 115.47029255048913,
    "Lat": 37.556069973278376
    },
    {
    "Code": 131121,
    "Province": "河北省",
    "City": "衡水市",
    "District": "枣强县",
    "Lng": 115.75767748261335,
    "Lat": 37.461024106053756
    },
    {
    "Code": 131122,
    "Province": "河北省",
    "City": "衡水市",
    "District": "武邑县",
    "Lng": 115.94450660707568,
    "Lat": 37.827678592246414
    },
    {
    "Code": 131123,
    "Province": "河北省",
    "City": "衡水市",
    "District": "武强县",
    "Lng": 115.92011828199676,
    "Lat": 38.05051303402729
    },
    {
    "Code": 131124,
    "Province": "河北省",
    "City": "衡水市",
    "District": "饶阳县",
    "Lng": 115.74000746167843,
    "Lat": 38.2230592410421
    },
    {
    "Code": 131125,
    "Province": "河北省",
    "City": "衡水市",
    "District": "安平县",
    "Lng": 115.49041582246221,
    "Lat": 38.24319586948719
    },
    {
    "Code": 131126,
    "Province": "河北省",
    "City": "衡水市",
    "District": "故城县",
    "Lng": 115.97805666289368,
    "Lat": 37.35699790636729
    },
    {
    "Code": 131127,
    "Province": "河北省",
    "City": "衡水市",
    "District": "景县",
    "Lng": 116.20013356505655,
    "Lat": 37.668477471140775
    },
    {
    "Code": 131128,
    "Province": "河北省",
    "City": "衡水市",
    "District": "阜城县",
    "Lng": 116.32842518536647,
    "Lat": 37.91230921361678
    },
    {
    "Code": 131182,
    "Province": "河北省",
    "City": "衡水市",
    "District": "深州市",
    "Lng": 115.58669880842099,
    "Lat": 37.95701286270159
    },
    {
    "Code": 139000,
    "Province": "河北省",
    "City": "省直辖县级行政区划",
    "District": "",
    "Lng": 115.66143362422224,
    "Lat": 38.61383974925108
    },
    {
    "Code": 139001,
    "Province": "河北省",
    "City": "省直辖县级行政区划",
    "District": "定州市",
    "Lng": 115.0574069523237,
    "Lat": 38.46583915804824
    },
    {
    "Code": 139002,
    "Province": "河北省",
    "City": "省直辖县级行政区划",
    "District": "辛集市",
    "Lng": 115.29874950520801,
    "Lat": 37.924121876409345
    },
    {
    "Code": 140000,
    "Province": "山西省",
    "City": "",
    "District": "",
    "Lng": 112.51549586383865,
    "Lat": 37.86656599050925
    },
    {
    "Code": 140100,
    "Province": "山西省",
    "City": "太原市",
    "District": "",
    "Lng": 112.5508635890553,
    "Lat": 37.89027705396754
    },
    {
    "Code": 140101,
    "Province": "山西省",
    "City": "太原市",
    "District": "市辖区",
    "Lng": 112.5508635890553,
    "Lat": 37.89027705396754
    },
    {
    "Code": 140105,
    "Province": "山西省",
    "City": "太原市",
    "District": "小店区",
    "Lng": 112.5774086067057,
    "Lat": 37.753527970895775
    },
    {
    "Code": 140106,
    "Province": "山西省",
    "City": "太原市",
    "District": "迎泽区",
    "Lng": 112.6632029812166,
    "Lat": 37.86573730206059
    },
    {
    "Code": 140107,
    "Province": "山西省",
    "City": "太原市",
    "District": "杏花岭区",
    "Lng": 112.62983632135398,
    "Lat": 37.91555605696536
    },
    {
    "Code": 140108,
    "Province": "山西省",
    "City": "太原市",
    "District": "尖草坪区",
    "Lng": 112.48843997984471,
    "Lat": 37.97275783953498
    },
    {
    "Code": 140109,
    "Province": "山西省",
    "City": "太原市",
    "District": "万柏林区",
    "Lng": 112.4028569766203,
    "Lat": 37.89469344758146
    },
    {
    "Code": 140110,
    "Province": "山西省",
    "City": "太原市",
    "District": "晋源区",
    "Lng": 112.48158725626186,
    "Lat": 37.74867491700283
    },
    {
    "Code": 140121,
    "Province": "山西省",
    "City": "太原市",
    "District": "清徐县",
    "Lng": 112.38708511796754,
    "Lat": 37.593242447369754
    },
    {
    "Code": 140122,
    "Province": "山西省",
    "City": "太原市",
    "District": "阳曲县",
    "Lng": 112.67265853686881,
    "Lat": 38.158246373697736
    },
    {
    "Code": 140123,
    "Province": "山西省",
    "City": "太原市",
    "District": "娄烦县",
    "Lng": 111.79782092799525,
    "Lat": 38.03458404313278
    },
    {
    "Code": 140181,
    "Province": "山西省",
    "City": "太原市",
    "District": "古交市",
    "Lng": 112.10773902369787,
    "Lat": 37.905179282549966
    },
    {
    "Code": 140200,
    "Province": "山西省",
    "City": "大同市",
    "District": "",
    "Lng": 113.29050867308048,
    "Lat": 40.11374449970518
    },
    {
    "Code": 140201,
    "Province": "山西省",
    "City": "大同市",
    "District": "市辖区",
    "Lng": 113.29050867308048,
    "Lat": 40.11374449970518
    },
    {
    "Code": 140202,
    "Province": "山西省",
    "City": "大同市",
    "District": "城区",
    "Lng": 113.2969658727473,
    "Lat": 40.10254286655904
    },
    {
    "Code": 140203,
    "Province": "山西省",
    "City": "大同市",
    "District": "矿区",
    "Lng": 113.29050867308048,
    "Lat": 40.11374449970518
    },
    {
    "Code": 140211,
    "Province": "山西省",
    "City": "大同市",
    "District": "南郊区",
    "Lng": 113.22645661564142,
    "Lat": 40.05189138740657
    },
    {
    "Code": 140212,
    "Province": "山西省",
    "City": "大同市",
    "District": "新荣区",
    "Lng": 113.2368941171924,
    "Lat": 40.26712712757409
    },
    {
    "Code": 140221,
    "Province": "山西省",
    "City": "大同市",
    "District": "阳高县",
    "Lng": 113.82318140606378,
    "Lat": 40.222311526135286
    },
    {
    "Code": 140222,
    "Province": "山西省",
    "City": "大同市",
    "District": "天镇县",
    "Lng": 114.16812988719342,
    "Lat": 40.403528534338385
    },
    {
    "Code": 140223,
    "Province": "山西省",
    "City": "大同市",
    "District": "广灵县",
    "Lng": 114.16170176526545,
    "Lat": 39.76899447951967
    },
    {
    "Code": 140224,
    "Province": "山西省",
    "City": "大同市",
    "District": "灵丘县",
    "Lng": 114.2130951742517,
    "Lat": 39.37726777734759
    },
    {
    "Code": 140225,
    "Province": "山西省",
    "City": "大同市",
    "District": "浑源县",
    "Lng": 113.71075899599177,
    "Lat": 39.634162361299076
    },
    {
    "Code": 140226,
    "Province": "山西省",
    "City": "大同市",
    "District": "左云县",
    "Lng": 112.77785639075854,
    "Lat": 40.00073796306882
    },
    {
    "Code": 140227,
    "Province": "山西省",
    "City": "大同市",
    "District": "大同县",
    "Lng": 113.58386582098244,
    "Lat": 40.00162748889317
    },
    {
    "Code": 140300,
    "Province": "山西省",
    "City": "阳泉市",
    "District": "",
    "Lng": 113.56923760163296,
    "Lat": 37.86952949322259
    },
    {
    "Code": 140301,
    "Province": "山西省",
    "City": "阳泉市",
    "District": "市辖区",
    "Lng": 113.56923760163296,
    "Lat": 37.86952949322259
    },
    {
    "Code": 140302,
    "Province": "山西省",
    "City": "阳泉市",
    "District": "城区",
    "Lng": 113.61283811718747,
    "Lat": 37.85786536146987
    },
    {
    "Code": 140303,
    "Province": "山西省",
    "City": "阳泉市",
    "District": "矿区",
    "Lng": 113.54077065934398,
    "Lat": 37.89080424451875
    },
    {
    "Code": 140311,
    "Province": "山西省",
    "City": "阳泉市",
    "District": "郊区",
    "Lng": 113.56808615363028,
    "Lat": 37.91150391111448
    },
    {
    "Code": 140321,
    "Province": "山西省",
    "City": "阳泉市",
    "District": "平定县",
    "Lng": 113.76897794042118,
    "Lat": 37.84927141730018
    },
    {
    "Code": 140322,
    "Province": "山西省",
    "City": "阳泉市",
    "District": "盂县",
    "Lng": 113.36096660369275,
    "Lat": 38.22938573414654
    },
    {
    "Code": 140400,
    "Province": "山西省",
    "City": "长治市",
    "District": "",
    "Lng": 113.12029208572514,
    "Lat": 36.20166438574343
    },
    {
    "Code": 140401,
    "Province": "山西省",
    "City": "长治市",
    "District": "市辖区",
    "Lng": 113.12029208572514,
    "Lat": 36.20166438574343
    },
    {
    "Code": 140402,
    "Province": "山西省",
    "City": "长治市",
    "District": "城区",
    "Lng": 113.1231693582736,
    "Lat": 36.18451119211299
    },
    {
    "Code": 140411,
    "Province": "山西省",
    "City": "长治市",
    "District": "郊区",
    "Lng": 113.11069620660645,
    "Lat": 36.27033955841271
    },
    {
    "Code": 140421,
    "Province": "山西省",
    "City": "长治市",
    "District": "长治县",
    "Lng": 113.08619419793796,
    "Lat": 36.024679976201455
    },
    {
    "Code": 140423,
    "Province": "山西省",
    "City": "长治市",
    "District": "襄垣县",
    "Lng": 112.98897348398155,
    "Lat": 36.5802007857545
    },
    {
    "Code": 140424,
    "Province": "山西省",
    "City": "长治市",
    "District": "屯留县",
    "Lng": 112.75036278967234,
    "Lat": 36.34260975107634
    },
    {
    "Code": 140425,
    "Province": "山西省",
    "City": "长治市",
    "District": "平顺县",
    "Lng": 113.5336889763453,
    "Lat": 36.22179415309129
    },
    {
    "Code": 140426,
    "Province": "山西省",
    "City": "长治市",
    "District": "黎城县",
    "Lng": 113.39685159378696,
    "Lat": 36.61936761027767
    },
    {
    "Code": 140427,
    "Province": "山西省",
    "City": "长治市",
    "District": "壶关县",
    "Lng": 113.37199790438082,
    "Lat": 35.99265193372007
    },
    {
    "Code": 140428,
    "Province": "山西省",
    "City": "长治市",
    "District": "长子县",
    "Lng": 112.80225403294276,
    "Lat": 36.11099940201891
    },
    {
    "Code": 140429,
    "Province": "山西省",
    "City": "长治市",
    "District": "武乡县",
    "Lng": 112.96751985957796,
    "Lat": 36.888322821208945
    },
    {
    "Code": 140430,
    "Province": "山西省",
    "City": "长治市",
    "District": "沁县",
    "Lng": 112.65221013617266,
    "Lat": 36.70738347604991
    },
    {
    "Code": 140431,
    "Province": "山西省",
    "City": "长治市",
    "District": "沁源县",
    "Lng": 112.29009399196951,
    "Lat": 36.70156663948841
    },
    {
    "Code": 140481,
    "Province": "山西省",
    "City": "长治市",
    "District": "潞城市",
    "Lng": 113.25438708828356,
    "Lat": 36.37440627323794
    },
    {
    "Code": 140500,
    "Province": "山西省",
    "City": "晋城市",
    "District": "",
    "Lng": 112.86733275750684,
    "Lat": 35.49983446722556
    },
    {
    "Code": 140501,
    "Province": "山西省",
    "City": "晋城市",
    "District": "市辖区",
    "Lng": 112.86733275750684,
    "Lat": 35.49983446722556
    },
    {
    "Code": 140502,
    "Province": "山西省",
    "City": "晋城市",
    "District": "城区",
    "Lng": 112.86733275750684,
    "Lat": 35.49983446722556
    },
    {
    "Code": 140521,
    "Province": "山西省",
    "City": "晋城市",
    "District": "沁水县",
    "Lng": 112.37742990986709,
    "Lat": 35.75148911815105
    },
    {
    "Code": 140522,
    "Province": "山西省",
    "City": "晋城市",
    "District": "阳城县",
    "Lng": 112.36152699508159,
    "Lat": 35.426540841161405
    },
    {
    "Code": 140524,
    "Province": "山西省",
    "City": "晋城市",
    "District": "陵川县",
    "Lng": 113.34338659862745,
    "Lat": 35.69074389791869
    },
    {
    "Code": 140525,
    "Province": "山西省",
    "City": "晋城市",
    "District": "泽州县",
    "Lng": 112.87098535032666,
    "Lat": 35.47585132549579
    },
    {
    "Code": 140581,
    "Province": "山西省",
    "City": "晋城市",
    "District": "高平市",
    "Lng": 112.93511535361624,
    "Lat": 35.809742457990794
    },
    {
    "Code": 140600,
    "Province": "山西省",
    "City": "朔州市",
    "District": "",
    "Lng": 112.47992772666272,
    "Lat": 39.33767196622064
    },
    {
    "Code": 140601,
    "Province": "山西省",
    "City": "朔州市",
    "District": "市辖区",
    "Lng": 112.47992772666272,
    "Lat": 39.33767196622064
    },
    {
    "Code": 140602,
    "Province": "山西省",
    "City": "朔州市",
    "District": "朔城区",
    "Lng": 112.55620015259842,
    "Lat": 39.24327243723846
    },
    {
    "Code": 140603,
    "Province": "山西省",
    "City": "朔州市",
    "District": "平鲁区",
    "Lng": 112.30434987236274,
    "Lat": 39.640007394397635
    },
    {
    "Code": 140621,
    "Province": "山西省",
    "City": "朔州市",
    "District": "山阴县",
    "Lng": 112.78680490548865,
    "Lat": 39.52104967313714
    },
    {
    "Code": 140622,
    "Province": "山西省",
    "City": "朔州市",
    "District": "应县",
    "Lng": 113.26059286958083,
    "Lat": 39.50931604368569
    },
    {
    "Code": 140623,
    "Province": "山西省",
    "City": "朔州市",
    "District": "右玉县",
    "Lng": 112.42167745341453,
    "Lat": 40.00813570646716
    },
    {
    "Code": 140624,
    "Province": "山西省",
    "City": "朔州市",
    "District": "怀仁县",
    "Lng": 113.11230462343235,
    "Lat": 39.79357083603243
    },
    {
    "Code": 140700,
    "Province": "山西省",
    "City": "晋中市",
    "District": "",
    "Lng": 112.73851439991773,
    "Lat": 37.69336152679759
    },
    {
    "Code": 140701,
    "Province": "山西省",
    "City": "晋中市",
    "District": "市辖区",
    "Lng": 112.73851439991773,
    "Lat": 37.69336152679759
    },
    {
    "Code": 140702,
    "Province": "山西省",
    "City": "晋中市",
    "District": "榆次区",
    "Lng": 112.8437365271623,
    "Lat": 37.65082468905364
    },
    {
    "Code": 140721,
    "Province": "山西省",
    "City": "晋中市",
    "District": "榆社县",
    "Lng": 112.95418082333455,
    "Lat": 37.14004998159083
    },
    {
    "Code": 140722,
    "Province": "山西省",
    "City": "晋中市",
    "District": "左权县",
    "Lng": 113.47453786444105,
    "Lat": 37.03279458537997
    },
    {
    "Code": 140723,
    "Province": "山西省",
    "City": "晋中市",
    "District": "和顺县",
    "Lng": 113.47493445138039,
    "Lat": 37.348373699108116
    },
    {
    "Code": 140724,
    "Province": "山西省",
    "City": "晋中市",
    "District": "昔阳县",
    "Lng": 113.76210572071082,
    "Lat": 37.563418385071685
    },
    {
    "Code": 140725,
    "Province": "山西省",
    "City": "晋中市",
    "District": "寿阳县",
    "Lng": 113.14161086395431,
    "Lat": 37.82511891440681
    },
    {
    "Code": 140726,
    "Province": "山西省",
    "City": "晋中市",
    "District": "太谷县",
    "Lng": 112.73643253248883,
    "Lat": 37.407696414458925
    },
    {
    "Code": 140727,
    "Province": "山西省",
    "City": "晋中市",
    "District": "祁县",
    "Lng": 112.46906595172106,
    "Lat": 37.29219808662871
    },
    {
    "Code": 140728,
    "Province": "山西省",
    "City": "晋中市",
    "District": "平遥县",
    "Lng": 112.26549326017494,
    "Lat": 37.14808977846167
    },
    {
    "Code": 140729,
    "Province": "山西省",
    "City": "晋中市",
    "District": "灵石县",
    "Lng": 111.73550355034705,
    "Lat": 36.834487193362
    },
    {
    "Code": 140781,
    "Province": "山西省",
    "City": "晋中市",
    "District": "介休市",
    "Lng": 111.99518801957157,
    "Lat": 37.02547627593959
    },
    {
    "Code": 140800,
    "Province": "山西省",
    "City": "运城市",
    "District": "",
    "Lng": 111.00685365308033,
    "Lat": 35.03885947981193
    },
    {
    "Code": 140801,
    "Province": "山西省",
    "City": "运城市",
    "District": "市辖区",
    "Lng": 111.00685365308033,
    "Lat": 35.03885947981193
    },
    {
    "Code": 140802,
    "Province": "山西省",
    "City": "运城市",
    "District": "盐湖区",
    "Lng": 110.96193094165363,
    "Lat": 35.0636768789324
    },
    {
    "Code": 140821,
    "Province": "山西省",
    "City": "运城市",
    "District": "临猗县",
    "Lng": 110.62589540588894,
    "Lat": 35.14937950112054
    },
    {
    "Code": 140822,
    "Province": "山西省",
    "City": "运城市",
    "District": "万荣县",
    "Lng": 110.71553950498584,
    "Lat": 35.38813401365165
    },
    {
    "Code": 140823,
    "Province": "山西省",
    "City": "运城市",
    "District": "闻喜县",
    "Lng": 111.31928675077734,
    "Lat": 35.37375315700039
    },
    {
    "Code": 140824,
    "Province": "山西省",
    "City": "运城市",
    "District": "稷山县",
    "Lng": 110.96512183757373,
    "Lat": 35.59826692410956
    },
    {
    "Code": 140825,
    "Province": "山西省",
    "City": "运城市",
    "District": "新绛县",
    "Lng": 111.17287529232247,
    "Lat": 35.63158254050748
    },
    {
    "Code": 140826,
    "Province": "山西省",
    "City": "运城市",
    "District": "绛县",
    "Lng": 111.64482039841182,
    "Lat": 35.49857853280774
    },
    {
    "Code": 140827,
    "Province": "山西省",
    "City": "运城市",
    "District": "垣曲县",
    "Lng": 111.82478688141815,
    "Lat": 35.22158415539342
    },
    {
    "Code": 140828,
    "Province": "山西省",
    "City": "运城市",
    "District": "夏县",
    "Lng": 111.35838628884602,
    "Lat": 35.126679510783745
    },
    {
    "Code": 140829,
    "Province": "山西省",
    "City": "运城市",
    "District": "平陆县",
    "Lng": 111.25110932093526,
    "Lat": 34.88864577444809
    },
    {
    "Code": 140830,
    "Province": "山西省",
    "City": "运城市",
    "District": "芮城县",
    "Lng": 110.61649553805749,
    "Lat": 34.70953476044693
    },
    {
    "Code": 140881,
    "Province": "山西省",
    "City": "运城市",
    "District": "永济市",
    "Lng": 110.48894872130789,
    "Lat": 34.89467151075451
    },
    {
    "Code": 140882,
    "Province": "山西省",
    "City": "运城市",
    "District": "河津市",
    "Lng": 110.70853926352623,
    "Lat": 35.63189104909055
    },
    {
    "Code": 140900,
    "Province": "山西省",
    "City": "忻州市",
    "District": "",
    "Lng": 112.72793882880985,
    "Lat": 38.46103057295889
    },
    {
    "Code": 140901,
    "Province": "山西省",
    "City": "忻州市",
    "District": "市辖区",
    "Lng": 112.72793882880985,
    "Lat": 38.46103057295889
    },
    {
    "Code": 140902,
    "Province": "山西省",
    "City": "忻州市",
    "District": "忻府区",
    "Lng": 112.60520013418204,
    "Lat": 38.43783196445267
    },
    {
    "Code": 140921,
    "Province": "山西省",
    "City": "忻州市",
    "District": "定襄县",
    "Lng": 113.03558876456275,
    "Lat": 38.516749763878394
    },
    {
    "Code": 140922,
    "Province": "山西省",
    "City": "忻州市",
    "District": "五台县",
    "Lng": 113.442104045353,
    "Lat": 38.77817400149207
    },
    {
    "Code": 140923,
    "Province": "山西省",
    "City": "忻州市",
    "District": "代县",
    "Lng": 113.05058168824989,
    "Lat": 39.09319722406683
    },
    {
    "Code": 140924,
    "Province": "山西省",
    "City": "忻州市",
    "District": "繁峙县",
    "Lng": 113.59621356700134,
    "Lat": 39.20475699470928
    },
    {
    "Code": 140925,
    "Province": "山西省",
    "City": "忻州市",
    "District": "宁武县",
    "Lng": 112.19389583349412,
    "Lat": 38.82188966634485
    },
    {
    "Code": 140926,
    "Province": "山西省",
    "City": "忻州市",
    "District": "静乐县",
    "Lng": 112.06499425223294,
    "Lat": 38.40006715410195
    },
    {
    "Code": 140927,
    "Province": "山西省",
    "City": "忻州市",
    "District": "神池县",
    "Lng": 112.00991986754168,
    "Lat": 39.17305344565403
    },
    {
    "Code": 140928,
    "Province": "山西省",
    "City": "忻州市",
    "District": "五寨县",
    "Lng": 111.7447571439168,
    "Lat": 39.00873085798386
    },
    {
    "Code": 140929,
    "Province": "山西省",
    "City": "忻州市",
    "District": "岢岚县",
    "Lng": 111.54356839150942,
    "Lat": 38.73795692605971
    },
    {
    "Code": 140930,
    "Province": "山西省",
    "City": "忻州市",
    "District": "河曲县",
    "Lng": 111.3598292600992,
    "Lat": 39.20643952863144
    },
    {
    "Code": 140931,
    "Province": "山西省",
    "City": "忻州市",
    "District": "保德县",
    "Lng": 111.14283481360566,
    "Lat": 38.88713524704388
    },
    {
    "Code": 140932,
    "Province": "山西省",
    "City": "忻州市",
    "District": "偏关县",
    "Lng": 111.67190327634798,
    "Lat": 39.46464923288074
    },
    {
    "Code": 140981,
    "Province": "山西省",
    "City": "忻州市",
    "District": "原平市",
    "Lng": 112.68212831914165,
    "Lat": 38.83887617274653
    },
    {
    "Code": 141000,
    "Province": "山西省",
    "City": "临汾市",
    "District": "",
    "Lng": 111.53878759640808,
    "Lat": 36.09974544358536
    },
    {
    "Code": 141001,
    "Province": "山西省",
    "City": "临汾市",
    "District": "市辖区",
    "Lng": 111.53878759640808,
    "Lat": 36.09974544358536
    },
    {
    "Code": 141002,
    "Province": "山西省",
    "City": "临汾市",
    "District": "尧都区",
    "Lng": 111.47466486210607,
    "Lat": 36.125936912419135
    },
    {
    "Code": 141021,
    "Province": "山西省",
    "City": "临汾市",
    "District": "曲沃县",
    "Lng": 111.52704105622857,
    "Lat": 35.704200978944485
    },
    {
    "Code": 141022,
    "Province": "山西省",
    "City": "临汾市",
    "District": "翼城县",
    "Lng": 111.83920947478445,
    "Lat": 35.69539758217851
    },
    {
    "Code": 141023,
    "Province": "山西省",
    "City": "临汾市",
    "District": "襄汾县",
    "Lng": 111.3859530953563,
    "Lat": 35.87420402995319
    },
    {
    "Code": 141024,
    "Province": "山西省",
    "City": "临汾市",
    "District": "洪洞县",
    "Lng": 111.65937789134962,
    "Lat": 36.32551418032607
    },
    {
    "Code": 141025,
    "Province": "山西省",
    "City": "临汾市",
    "District": "古县",
    "Lng": 112.01124254119023,
    "Lat": 36.30382253103803
    },
    {
    "Code": 141026,
    "Province": "山西省",
    "City": "临汾市",
    "District": "安泽县",
    "Lng": 112.30790366346643,
    "Lat": 36.164295531066124
    },
    {
    "Code": 141027,
    "Province": "山西省",
    "City": "临汾市",
    "District": "浮山县",
    "Lng": 111.9284088739819,
    "Lat": 35.94583076600584
    },
    {
    "Code": 141028,
    "Province": "山西省",
    "City": "临汾市",
    "District": "吉县",
    "Lng": 110.72816197039876,
    "Lat": 36.15867731748437
    },
    {
    "Code": 141029,
    "Province": "山西省",
    "City": "临汾市",
    "District": "乡宁县",
    "Lng": 110.94412841404447,
    "Lat": 35.925119179377575
    },
    {
    "Code": 141030,
    "Province": "山西省",
    "City": "临汾市",
    "District": "大宁县",
    "Lng": 110.71080544252996,
    "Lat": 36.432636300531584
    },
    {
    "Code": 141031,
    "Province": "山西省",
    "City": "临汾市",
    "District": "隰县",
    "Lng": 111.00996531616914,
    "Lat": 36.711950508392185
    },
    {
    "Code": 141032,
    "Province": "山西省",
    "City": "临汾市",
    "District": "永和县",
    "Lng": 110.6178981835499,
    "Lat": 36.73713736746178
    },
    {
    "Code": 141033,
    "Province": "山西省",
    "City": "临汾市",
    "District": "蒲县",
    "Lng": 111.16235867374708,
    "Lat": 36.42459969887894
    },
    {
    "Code": 141034,
    "Province": "山西省",
    "City": "临汾市",
    "District": "汾西县",
    "Lng": 111.48314834543358,
    "Lat": 36.64278138950399
    },
    {
    "Code": 141081,
    "Province": "山西省",
    "City": "临汾市",
    "District": "侯马市",
    "Lng": 111.37150924675753,
    "Lat": 35.62178548787969
    },
    {
    "Code": 141082,
    "Province": "山西省",
    "City": "临汾市",
    "District": "霍州市",
    "Lng": 111.83083562619586,
    "Lat": 36.59967782911543
    },
    {
    "Code": 141100,
    "Province": "山西省",
    "City": "吕梁市",
    "District": "",
    "Lng": 111.14315660234801,
    "Lat": 37.52731609696258
    },
    {
    "Code": 141101,
    "Province": "山西省",
    "City": "吕梁市",
    "District": "市辖区",
    "Lng": 111.14315660234801,
    "Lat": 37.52731609696258
    },
    {
    "Code": 141102,
    "Province": "山西省",
    "City": "吕梁市",
    "District": "离石区",
    "Lng": 111.31314199347,
    "Lat": 37.55233925490295
    },
    {
    "Code": 141121,
    "Province": "山西省",
    "City": "吕梁市",
    "District": "文水县",
    "Lng": 111.96499464977616,
    "Lat": 37.459705909704425
    },
    {
    "Code": 141122,
    "Province": "山西省",
    "City": "吕梁市",
    "District": "交城县",
    "Lng": 111.81992715422206,
    "Lat": 37.68704558482044
    },
    {
    "Code": 141123,
    "Province": "山西省",
    "City": "吕梁市",
    "District": "兴县",
    "Lng": 111.06931108239739,
    "Lat": 38.39226258394571
    },
    {
    "Code": 141124,
    "Province": "山西省",
    "City": "吕梁市",
    "District": "临县",
    "Lng": 110.90114744504105,
    "Lat": 37.96286739413805
    },
    {
    "Code": 141125,
    "Province": "山西省",
    "City": "吕梁市",
    "District": "柳林县",
    "Lng": 110.87692675414752,
    "Lat": 37.403754146297516
    },
    {
    "Code": 141126,
    "Province": "山西省",
    "City": "吕梁市",
    "District": "石楼县",
    "Lng": 110.75347868182924,
    "Lat": 37.03514510862604
    },
    {
    "Code": 141127,
    "Province": "山西省",
    "City": "吕梁市",
    "District": "岚县",
    "Lng": 111.60664055967526,
    "Lat": 38.343813372011674
    },
    {
    "Code": 141128,
    "Province": "山西省",
    "City": "吕梁市",
    "District": "方山县",
    "Lng": 111.33797892211047,
    "Lat": 37.886687741974335
    },
    {
    "Code": 141129,
    "Province": "山西省",
    "City": "吕梁市",
    "District": "中阳县",
    "Lng": 111.1859035077197,
    "Lat": 37.26631751080384
    },
    {
    "Code": 141130,
    "Province": "山西省",
    "City": "吕梁市",
    "District": "交口县",
    "Lng": 111.31592365888334,
    "Lat": 36.957718536995806
    },
    {
    "Code": 141181,
    "Province": "山西省",
    "City": "吕梁市",
    "District": "孝义市",
    "Lng": 111.63764576631374,
    "Lat": 37.118132778216676
    },
    {
    "Code": 141182,
    "Province": "山西省",
    "City": "吕梁市",
    "District": "汾阳市",
    "Lng": 111.74599591288157,
    "Lat": 37.31676430910595
    },
    {
    "Code": 150000,
    "Province": "内蒙古自治区",
    "City": "",
    "District": "",
    "Lng": 114.41586754816612,
    "Lat": 43.46823822194904
    },
    {
    "Code": 150100,
    "Province": "内蒙古自治区",
    "City": "呼和浩特市",
    "District": "",
    "Lng": 111.6603505200542,
    "Lat": 40.828318873081585
    },
    {
    "Code": 150101,
    "Province": "内蒙古自治区",
    "City": "呼和浩特市",
    "District": "市辖区",
    "Lng": 111.6603505200542,
    "Lat": 40.828318873081585
    },
    {
    "Code": 150102,
    "Province": "内蒙古自治区",
    "City": "呼和浩特市",
    "District": "新城区",
    "Lng": 111.79132678713937,
    "Lat": 40.9293607787756
    },
    {
    "Code": 150103,
    "Province": "内蒙古自治区",
    "City": "呼和浩特市",
    "District": "回民区",
    "Lng": 111.59688559509647,
    "Lat": 40.83889476378789
    },
    {
    "Code": 150104,
    "Province": "内蒙古自治区",
    "City": "呼和浩特市",
    "District": "玉泉区",
    "Lng": 111.65855345988149,
    "Lat": 40.74738667204219
    },
    {
    "Code": 150105,
    "Province": "内蒙古自治区",
    "City": "呼和浩特市",
    "District": "赛罕区",
    "Lng": 111.87633478500686,
    "Lat": 40.78886415235602
    },
    {
    "Code": 150121,
    "Province": "内蒙古自治区",
    "City": "呼和浩特市",
    "District": "土默特左旗",
    "Lng": 111.23470409261432,
    "Lat": 40.68998701613934
    },
    {
    "Code": 150122,
    "Province": "内蒙古自治区",
    "City": "呼和浩特市",
    "District": "托克托县",
    "Lng": 111.31970020313491,
    "Lat": 40.361083978493966
    },
    {
    "Code": 150123,
    "Province": "内蒙古自治区",
    "City": "呼和浩特市",
    "District": "和林格尔县",
    "Lng": 111.90169267122437,
    "Lat": 40.3338684420585
    },
    {
    "Code": 150124,
    "Province": "内蒙古自治区",
    "City": "呼和浩特市",
    "District": "清水河县",
    "Lng": 111.70623630690847,
    "Lat": 39.889117744684924
    },
    {
    "Code": 150125,
    "Province": "内蒙古自治区",
    "City": "呼和浩特市",
    "District": "武川县",
    "Lng": 111.17957193814095,
    "Lat": 41.11620438740027
    },
    {
    "Code": 150200,
    "Province": "内蒙古自治区",
    "City": "包头市",
    "District": "",
    "Lng": 109.84623853249181,
    "Lat": 40.64711942570857
    },
    {
    "Code": 150201,
    "Province": "内蒙古自治区",
    "City": "包头市",
    "District": "市辖区",
    "Lng": 109.84623853249181,
    "Lat": 40.64711942570857
    },
    {
    "Code": 150202,
    "Province": "内蒙古自治区",
    "City": "包头市",
    "District": "东河区",
    "Lng": 110.07014136051491,
    "Lat": 40.589124487996266
    },
    {
    "Code": 150203,
    "Province": "内蒙古自治区",
    "City": "包头市",
    "District": "昆都仑区",
    "Lng": 109.80683355282166,
    "Lat": 40.658057498223656
    },
    {
    "Code": 150204,
    "Province": "内蒙古自治区",
    "City": "包头市",
    "District": "青山区",
    "Lng": 109.90367483934152,
    "Lat": 40.65877795947621
    },
    {
    "Code": 150205,
    "Province": "内蒙古自治区",
    "City": "包头市",
    "District": "石拐区",
    "Lng": 110.29921474522288,
    "Lat": 40.716464297271564
    },
    {
    "Code": 150206,
    "Province": "内蒙古自治区",
    "City": "包头市",
    "District": "白云鄂博矿区",
    "Lng": 109.98916893149352,
    "Lat": 41.78999250232638
    },
    {
    "Code": 150207,
    "Province": "内蒙古自治区",
    "City": "包头市",
    "District": "九原区",
    "Lng": 109.94919745919572,
    "Lat": 40.62720227827458
    },
    {
    "Code": 150221,
    "Province": "内蒙古自治区",
    "City": "包头市",
    "District": "土默特右旗",
    "Lng": 110.69325794787949,
    "Lat": 40.52799576437404
    },
    {
    "Code": 150222,
    "Province": "内蒙古自治区",
    "City": "包头市",
    "District": "固阳县",
    "Lng": 110.16759209358126,
    "Lat": 41.104725412273865
    },
    {
    "Code": 150223,
    "Province": "内蒙古自治区",
    "City": "包头市",
    "District": "达尔罕茂明安联合旗",
    "Lng": 110.28618869999073,
    "Lat": 41.94350714826722
    },
    {
    "Code": 150300,
    "Province": "内蒙古自治区",
    "City": "乌海市",
    "District": "",
    "Lng": 106.83199909716231,
    "Lat": 39.683177006785236
    },
    {
    "Code": 150301,
    "Province": "内蒙古自治区",
    "City": "乌海市",
    "District": "市辖区",
    "Lng": 106.83199909716231,
    "Lat": 39.683177006785236
    },
    {
    "Code": 150302,
    "Province": "内蒙古自治区",
    "City": "乌海市",
    "District": "海勃湾区",
    "Lng": 106.86148184332198,
    "Lat": 39.73483365127534
    },
    {
    "Code": 150303,
    "Province": "内蒙古自治区",
    "City": "乌海市",
    "District": "海南区",
    "Lng": 106.92539717866242,
    "Lat": 39.29620947939178
    },
    {
    "Code": 150304,
    "Province": "内蒙古自治区",
    "City": "乌海市",
    "District": "乌达区",
    "Lng": 106.72585891132533,
    "Lat": 39.53587770143305
    },
    {
    "Code": 150400,
    "Province": "内蒙古自治区",
    "City": "赤峰市",
    "District": "",
    "Lng": 118.9307611921676,
    "Lat": 42.297112320317325
    },
    {
    "Code": 150401,
    "Province": "内蒙古自治区",
    "City": "赤峰市",
    "District": "市辖区",
    "Lng": 118.9307611921676,
    "Lat": 42.297112320317325
    },
    {
    "Code": 150402,
    "Province": "内蒙古自治区",
    "City": "赤峰市",
    "District": "红山区",
    "Lng": 118.99810293421473,
    "Lat": 42.286232134078965
    },
    {
    "Code": 150403,
    "Province": "内蒙古自治区",
    "City": "赤峰市",
    "District": "元宝山区",
    "Lng": 119.26816941290396,
    "Lat": 42.18413064880197
    },
    {
    "Code": 150404,
    "Province": "内蒙古自治区",
    "City": "赤峰市",
    "District": "松山区",
    "Lng": 118.75710571165897,
    "Lat": 42.26875301528874
    },
    {
    "Code": 150421,
    "Province": "内蒙古自治区",
    "City": "赤峰市",
    "District": "阿鲁科尔沁旗",
    "Lng": 120.05324069383768,
    "Lat": 44.19595659741144
    },
    {
    "Code": 150422,
    "Province": "内蒙古自治区",
    "City": "赤峰市",
    "District": "巴林左旗",
    "Lng": 119.28076636509114,
    "Lat": 44.203430813088474
    },
    {
    "Code": 150423,
    "Province": "内蒙古自治区",
    "City": "赤峰市",
    "District": "巴林右旗",
    "Lng": 118.94608974309946,
    "Lat": 43.68478663145437
    },
    {
    "Code": 150424,
    "Province": "内蒙古自治区",
    "City": "赤峰市",
    "District": "林西县",
    "Lng": 118.11021614789775,
    "Lat": 43.7714622114794
    },
    {
    "Code": 150425,
    "Province": "内蒙古自治区",
    "City": "赤峰市",
    "District": "克什克腾旗",
    "Lng": 117.35857031121249,
    "Lat": 43.21823717668056
    },
    {
    "Code": 150426,
    "Province": "内蒙古自治区",
    "City": "赤峰市",
    "District": "翁牛特旗",
    "Lng": 119.2546429407495,
    "Lat": 42.97397991925768
    },
    {
    "Code": 150428,
    "Province": "内蒙古自治区",
    "City": "赤峰市",
    "District": "喀喇沁旗",
    "Lng": 118.6670560135748,
    "Lat": 41.908351449935225
    },
    {
    "Code": 150429,
    "Province": "内蒙古自治区",
    "City": "赤峰市",
    "District": "宁城县",
    "Lng": 118.90549936908933,
    "Lat": 41.5710408671387
    },
    {
    "Code": 150430,
    "Province": "内蒙古自治区",
    "City": "赤峰市",
    "District": "敖汉旗",
    "Lng": 120.15771329609198,
    "Lat": 42.43059223820326
    },
    {
    "Code": 150500,
    "Province": "内蒙古自治区",
    "City": "通辽市",
    "District": "",
    "Lng": 122.26036326322144,
    "Lat": 43.633756072995986
    },
    {
    "Code": 150501,
    "Province": "内蒙古自治区",
    "City": "通辽市",
    "District": "市辖区",
    "Lng": 122.26036326322144,
    "Lat": 43.633756072995986
    },
    {
    "Code": 150502,
    "Province": "内蒙古自治区",
    "City": "通辽市",
    "District": "科尔沁区",
    "Lng": 122.29129415355533,
    "Lat": 43.65829014983674
    },
    {
    "Code": 150521,
    "Province": "内蒙古自治区",
    "City": "通辽市",
    "District": "科尔沁左翼中旗",
    "Lng": 122.4991800444191,
    "Lat": 44.0575792851999
    },
    {
    "Code": 150522,
    "Province": "内蒙古自治区",
    "City": "通辽市",
    "District": "科尔沁左翼后旗",
    "Lng": 122.69734535161646,
    "Lat": 43.19608275166495
    },
    {
    "Code": 150523,
    "Province": "内蒙古自治区",
    "City": "通辽市",
    "District": "开鲁县",
    "Lng": 121.32409399005317,
    "Lat": 43.73494195439141
    },
    {
    "Code": 150524,
    "Province": "内蒙古自治区",
    "City": "通辽市",
    "District": "库伦旗",
    "Lng": 121.57303788589562,
    "Lat": 42.81003821531393
    },
    {
    "Code": 150525,
    "Province": "内蒙古自治区",
    "City": "通辽市",
    "District": "奈曼旗",
    "Lng": 120.9407889963667,
    "Lat": 42.97238301073924
    },
    {
    "Code": 150526,
    "Province": "内蒙古自治区",
    "City": "通辽市",
    "District": "扎鲁特旗",
    "Lng": 120.59602806799069,
    "Lat": 44.822451301929654
    },
    {
    "Code": 150581,
    "Province": "内蒙古自治区",
    "City": "通辽市",
    "District": "霍林郭勒市",
    "Lng": 119.57974844021628,
    "Lat": 45.528106056329776
    },
    {
    "Code": 150600,
    "Province": "内蒙古自治区",
    "City": "鄂尔多斯市",
    "District": "",
    "Lng": 109.99370625145134,
    "Lat": 39.81648956060153
    },
    {
    "Code": 150601,
    "Province": "内蒙古自治区",
    "City": "鄂尔多斯市",
    "District": "市辖区",
    "Lng": 109.99370625145134,
    "Lat": 39.81648956060153
    },
    {
    "Code": 150602,
    "Province": "内蒙古自治区",
    "City": "鄂尔多斯市",
    "District": "东胜区",
    "Lng": 109.76441928582383,
    "Lat": 39.805585913145606
    },
    {
    "Code": 150603,
    "Province": "内蒙古自治区",
    "City": "鄂尔多斯市",
    "District": "康巴什区",
    "Lng": 109.99370625145134,
    "Lat": 39.81648956060153
    },
    {
    "Code": 150621,
    "Province": "内蒙古自治区",
    "City": "鄂尔多斯市",
    "District": "达拉特旗",
    "Lng": 109.86619090676072,
    "Lat": 40.22026447389275
    },
    {
    "Code": 150622,
    "Province": "内蒙古自治区",
    "City": "鄂尔多斯市",
    "District": "准格尔旗",
    "Lng": 110.88623942079244,
    "Lat": 39.794724895630154
    },
    {
    "Code": 150623,
    "Province": "内蒙古自治区",
    "City": "鄂尔多斯市",
    "District": "鄂托克前旗",
    "Lng": 107.59700999652225,
    "Lat": 38.27593828728808
    },
    {
    "Code": 150624,
    "Province": "内蒙古自治区",
    "City": "鄂尔多斯市",
    "District": "鄂托克旗",
    "Lng": 107.75202023325484,
    "Lat": 39.28629659327761
    },
    {
    "Code": 150625,
    "Province": "内蒙古自治区",
    "City": "鄂尔多斯市",
    "District": "杭锦旗",
    "Lng": 108.21282820431726,
    "Lat": 40.212873152737515
    },
    {
    "Code": 150626,
    "Province": "内蒙古自治区",
    "City": "鄂尔多斯市",
    "District": "乌审旗",
    "Lng": 108.88966323665873,
    "Lat": 38.64047514723402
    },
    {
    "Code": 150627,
    "Province": "内蒙古自治区",
    "City": "鄂尔多斯市",
    "District": "伊金霍洛旗",
    "Lng": 109.70418618840912,
    "Lat": 39.42069591840427
    },
    {
    "Code": 150700,
    "Province": "内蒙古自治区",
    "City": "呼伦贝尔市",
    "District": "",
    "Lng": 119.76082179399947,
    "Lat": 49.201636054604336
    },
    {
    "Code": 150701,
    "Province": "内蒙古自治区",
    "City": "呼伦贝尔市",
    "District": "市辖区",
    "Lng": 119.76082179399947,
    "Lat": 49.201636054604336
    },
    {
    "Code": 150702,
    "Province": "内蒙古自治区",
    "City": "呼伦贝尔市",
    "District": "海拉尔区",
    "Lng": 120.04288208342074,
    "Lat": 49.27924545620167
    },
    {
    "Code": 150703,
    "Province": "内蒙古自治区",
    "City": "呼伦贝尔市",
    "District": "扎赉诺尔区",
    "Lng": 117.72318498535981,
    "Lat": 49.46148156810758
    },
    {
    "Code": 150721,
    "Province": "内蒙古自治区",
    "City": "呼伦贝尔市",
    "District": "阿荣旗",
    "Lng": 123.17195423134109,
    "Lat": 48.63998874107147
    },
    {
    "Code": 150722,
    "Province": "内蒙古自治区",
    "City": "呼伦贝尔市",
    "District": "莫力达瓦达斡尔族自治旗",
    "Lng": 124.47443404901212,
    "Lat": 49.10488665171792
    },
    {
    "Code": 150723,
    "Province": "内蒙古自治区",
    "City": "呼伦贝尔市",
    "District": "鄂伦春自治旗",
    "Lng": 123.81727783781866,
    "Lat": 50.348754571527884
    },
    {
    "Code": 150724,
    "Province": "内蒙古自治区",
    "City": "呼伦贝尔市",
    "District": "鄂温克族自治旗",
    "Lng": 120.06748322167265,
    "Lat": 48.49913651459894
    },
    {
    "Code": 150725,
    "Province": "内蒙古自治区",
    "City": "呼伦贝尔市",
    "District": "陈巴尔虎旗",
    "Lng": 119.53520765754227,
    "Lat": 49.60528127676082
    },
    {
    "Code": 150726,
    "Province": "内蒙古自治区",
    "City": "呼伦贝尔市",
    "District": "新巴尔虎左旗",
    "Lng": 118.62152477908603,
    "Lat": 48.436391878769655
    },
    {
    "Code": 150727,
    "Province": "内蒙古自治区",
    "City": "呼伦贝尔市",
    "District": "新巴尔虎右旗",
    "Lng": 116.80218434220377,
    "Lat": 48.64497891537873
    },
    {
    "Code": 150781,
    "Province": "内蒙古自治区",
    "City": "呼伦贝尔市",
    "District": "满洲里市",
    "Lng": 117.60368677619397,
    "Lat": 49.500031717154286
    },
    {
    "Code": 150782,
    "Province": "内蒙古自治区",
    "City": "呼伦贝尔市",
    "District": "牙克石市",
    "Lng": 121.51266780551569,
    "Lat": 49.32999593959703
    },
    {
    "Code": 150783,
    "Province": "内蒙古自治区",
    "City": "呼伦贝尔市",
    "District": "扎兰屯市",
    "Lng": 121.92920216562221,
    "Lat": 47.743403383099974
    },
    {
    "Code": 150784,
    "Province": "内蒙古自治区",
    "City": "呼伦贝尔市",
    "District": "额尔古纳市",
    "Lng": 120.65276364823939,
    "Lat": 51.660818880977494
    },
    {
    "Code": 150785,
    "Province": "内蒙古自治区",
    "City": "呼伦贝尔市",
    "District": "根河市",
    "Lng": 121.79771324216983,
    "Lat": 51.37592516126969
    },
    {
    "Code": 150800,
    "Province": "内蒙古自治区",
    "City": "巴彦淖尔市",
    "District": "",
    "Lng": 107.42380671968002,
    "Lat": 40.76917990242912
    },
    {
    "Code": 150801,
    "Province": "内蒙古自治区",
    "City": "巴彦淖尔市",
    "District": "市辖区",
    "Lng": 107.42380671968002,
    "Lat": 40.76917990242912
    },
    {
    "Code": 150802,
    "Province": "内蒙古自治区",
    "City": "巴彦淖尔市",
    "District": "临河区",
    "Lng": 107.44183964666986,
    "Lat": 40.93201822322359
    },
    {
    "Code": 150821,
    "Province": "内蒙古自治区",
    "City": "巴彦淖尔市",
    "District": "五原县",
    "Lng": 108.07228406064701,
    "Lat": 41.04542666481667
    },
    {
    "Code": 150822,
    "Province": "内蒙古自治区",
    "City": "巴彦淖尔市",
    "District": "磴口县",
    "Lng": 106.70000005669506,
    "Lat": 40.55518106886025
    },
    {
    "Code": 150823,
    "Province": "内蒙古自治区",
    "City": "巴彦淖尔市",
    "District": "乌拉特前旗",
    "Lng": 109.10529705882409,
    "Lat": 40.90599326088688
    },
    {
    "Code": 150824,
    "Province": "内蒙古自治区",
    "City": "巴彦淖尔市",
    "District": "乌拉特中旗",
    "Lng": 108.46454180074281,
    "Lat": 41.83104452742754
    },
    {
    "Code": 150825,
    "Province": "内蒙古自治区",
    "City": "巴彦淖尔市",
    "District": "乌拉特后旗",
    "Lng": 106.41380804671012,
    "Lat": 41.53194458396023
    },
    {
    "Code": 150826,
    "Province": "内蒙古自治区",
    "City": "巴彦淖尔市",
    "District": "杭锦后旗",
    "Lng": 107.03345374933102,
    "Lat": 40.89087078077926
    },
    {
    "Code": 150900,
    "Province": "内蒙古自治区",
    "City": "乌兰察布市",
    "District": "",
    "Lng": 113.11284639067514,
    "Lat": 41.02236294675116
    },
    {
    "Code": 150901,
    "Province": "内蒙古自治区",
    "City": "乌兰察布市",
    "District": "市辖区",
    "Lng": 113.11284639067514,
    "Lat": 41.02236294675116
    },
    {
    "Code": 150902,
    "Province": "内蒙古自治区",
    "City": "乌兰察布市",
    "District": "集宁区",
    "Lng": 113.11283222874056,
    "Lat": 41.02776597146905
    },
    {
    "Code": 150921,
    "Province": "内蒙古自治区",
    "City": "乌兰察布市",
    "District": "卓资县",
    "Lng": 112.44337671416162,
    "Lat": 40.958869485808286
    },
    {
    "Code": 150922,
    "Province": "内蒙古自治区",
    "City": "乌兰察布市",
    "District": "化德县",
    "Lng": 114.1657379065639,
    "Lat": 41.979126377537625
    },
    {
    "Code": 150923,
    "Province": "内蒙古自治区",
    "City": "乌兰察布市",
    "District": "商都县",
    "Lng": 113.62215528367015,
    "Lat": 41.72651685156371
    },
    {
    "Code": 150924,
    "Province": "内蒙古自治区",
    "City": "乌兰察布市",
    "District": "兴和县",
    "Lng": 113.77372051762035,
    "Lat": 40.95266652177794
    },
    {
    "Code": 150925,
    "Province": "内蒙古自治区",
    "City": "乌兰察布市",
    "District": "凉城县",
    "Lng": 112.55043247172017,
    "Lat": 40.502780210603895
    },
    {
    "Code": 150926,
    "Province": "内蒙古自治区",
    "City": "乌兰察布市",
    "District": "察哈尔右翼前旗",
    "Lng": 113.24109639163109,
    "Lat": 40.981709597107056
    },
    {
    "Code": 150927,
    "Province": "内蒙古自治区",
    "City": "乌兰察布市",
    "District": "察哈尔右翼中旗",
    "Lng": 112.47074335399404,
    "Lat": 41.428255371505024
    },
    {
    "Code": 150928,
    "Province": "内蒙古自治区",
    "City": "乌兰察布市",
    "District": "察哈尔右翼后旗",
    "Lng": 113.06969288248311,
    "Lat": 41.5294830907894
    },
    {
    "Code": 150929,
    "Province": "内蒙古自治区",
    "City": "乌兰察布市",
    "District": "四子王旗",
    "Lng": 111.58903652853078,
    "Lat": 42.30714575606971
    },
    {
    "Code": 150981,
    "Province": "内蒙古自治区",
    "City": "乌兰察布市",
    "District": "丰镇市",
    "Lng": 113.30867650253073,
    "Lat": 40.558336025296484
    },
    {
    "Code": 152200,
    "Province": "内蒙古自治区",
    "City": "兴安盟",
    "District": "",
    "Lng": 122.04816651406564,
    "Lat": 46.08375706518232
    },
    {
    "Code": 152201,
    "Province": "内蒙古自治区",
    "City": "兴安盟",
    "District": "乌兰浩特市",
    "Lng": 122.08153380950299,
    "Lat": 46.11694357016496
    },
    {
    "Code": 152202,
    "Province": "内蒙古自治区",
    "City": "兴安盟",
    "District": "阿尔山市",
    "Lng": 120.35753387505011,
    "Lat": 47.16369633572684
    },
    {
    "Code": 152221,
    "Province": "内蒙古自治区",
    "City": "兴安盟",
    "District": "科尔沁右翼前旗",
    "Lng": 121.22152365341796,
    "Lat": 46.3340253808984
    },
    {
    "Code": 152222,
    "Province": "内蒙古自治区",
    "City": "兴安盟",
    "District": "科尔沁右翼中旗",
    "Lng": 121.19851019319081,
    "Lat": 45.24206881566815
    },
    {
    "Code": 152223,
    "Province": "内蒙古自治区",
    "City": "兴安盟",
    "District": "扎赉特旗",
    "Lng": 122.3881462578201,
    "Lat": 46.7908077863969
    },
    {
    "Code": 152224,
    "Province": "内蒙古自治区",
    "City": "兴安盟",
    "District": "突泉县",
    "Lng": 121.51921179351145,
    "Lat": 45.63286621909464
    },
    {
    "Code": 152500,
    "Province": "内蒙古自治区",
    "City": "锡林郭勒盟",
    "District": "",
    "Lng": 116.02733968895716,
    "Lat": 43.93970484232425
    },
    {
    "Code": 152501,
    "Province": "内蒙古自治区",
    "City": "锡林郭勒盟",
    "District": "二连浩特市",
    "Lng": 111.9661784137779,
    "Lat": 43.4177804582257
    },
    {
    "Code": 152502,
    "Province": "内蒙古自治区",
    "City": "锡林郭勒盟",
    "District": "锡林浩特市",
    "Lng": 116.13694826431457,
    "Lat": 44.07896112909946
    },
    {
    "Code": 152522,
    "Province": "内蒙古自治区",
    "City": "锡林郭勒盟",
    "District": "阿巴嘎旗",
    "Lng": 114.89347121165105,
    "Lat": 44.276507422523316
    },
    {
    "Code": 152523,
    "Province": "内蒙古自治区",
    "City": "锡林郭勒盟",
    "District": "苏尼特左旗",
    "Lng": 113.14030742275366,
    "Lat": 44.03923804325237
    },
    {
    "Code": 152524,
    "Province": "内蒙古自治区",
    "City": "锡林郭勒盟",
    "District": "苏尼特右旗",
    "Lng": 112.91159981029253,
    "Lat": 42.900963777858095
    },
    {
    "Code": 152525,
    "Province": "内蒙古自治区",
    "City": "锡林郭勒盟",
    "District": "东乌珠穆沁旗",
    "Lng": 117.81045041340154,
    "Lat": 45.82666479333843
    },
    {
    "Code": 152526,
    "Province": "内蒙古自治区",
    "City": "锡林郭勒盟",
    "District": "西乌珠穆沁旗",
    "Lng": 117.81696314272835,
    "Lat": 44.715902995291906
    },
    {
    "Code": 152527,
    "Province": "内蒙古自治区",
    "City": "锡林郭勒盟",
    "District": "太仆寺旗",
    "Lng": 115.30455821777325,
    "Lat": 41.90621563504143
    },
    {
    "Code": 152528,
    "Province": "内蒙古自治区",
    "City": "锡林郭勒盟",
    "District": "镶黄旗",
    "Lng": 114.12058911409082,
    "Lat": 42.368275700926404
    },
    {
    "Code": 152529,
    "Province": "内蒙古自治区",
    "City": "锡林郭勒盟",
    "District": "正镶白旗",
    "Lng": 115.0243472845073,
    "Lat": 42.55484297003264
    },
    {
    "Code": 152530,
    "Province": "内蒙古自治区",
    "City": "锡林郭勒盟",
    "District": "正蓝旗",
    "Lng": 115.94010983058116,
    "Lat": 42.674413879311246
    },
    {
    "Code": 152531,
    "Province": "内蒙古自治区",
    "City": "锡林郭勒盟",
    "District": "多伦县",
    "Lng": 116.49863867620431,
    "Lat": 42.196600874378895
    },
    {
    "Code": 152900,
    "Province": "内蒙古自治区",
    "City": "阿拉善盟",
    "District": "",
    "Lng": 105.69568287112703,
    "Lat": 38.84307526440767
    },
    {
    "Code": 152921,
    "Province": "内蒙古自治区",
    "City": "阿拉善盟",
    "District": "阿拉善左旗",
    "Lng": 105.0382468419835,
    "Lat": 39.54780640101252
    },
    {
    "Code": 152922,
    "Province": "内蒙古自治区",
    "City": "阿拉善盟",
    "District": "阿拉善右旗",
    "Lng": 102.44385599727482,
    "Lat": 40.186228955604484
    },
    {
    "Code": 152923,
    "Province": "内蒙古自治区",
    "City": "阿拉善盟",
    "District": "额济纳旗",
    "Lng": 100.09951238470514,
    "Lat": 41.69379984316055
    },
    {
    "Code": 210000,
    "Province": "辽宁省",
    "City": "",
    "District": "",
    "Lng": 122.75359155771858,
    "Lat": 41.62160010595761
    },
    {
    "Code": 210100,
    "Province": "辽宁省",
    "City": "沈阳市",
    "District": "",
    "Lng": 123.43279092160505,
    "Lat": 41.808644783515746
    },
    {
    "Code": 210101,
    "Province": "辽宁省",
    "City": "沈阳市",
    "District": "市辖区",
    "Lng": 123.43279092160505,
    "Lat": 41.808644783515746
    },
    {
    "Code": 210102,
    "Province": "辽宁省",
    "City": "沈阳市",
    "District": "和平区",
    "Lng": 123.4143316604605,
    "Lat": 41.7864743957919
    },
    {
    "Code": 210103,
    "Province": "辽宁省",
    "City": "沈阳市",
    "District": "沈河区",
    "Lng": 123.45355228300993,
    "Lat": 41.79830464193271
    },
    {
    "Code": 210104,
    "Province": "辽宁省",
    "City": "沈阳市",
    "District": "大东区",
    "Lng": 123.49892677690912,
    "Lat": 41.83527908077473
    },
    {
    "Code": 210105,
    "Province": "辽宁省",
    "City": "沈阳市",
    "District": "皇姑区",
    "Lng": 123.41537632671833,
    "Lat": 41.84891320457334
    },
    {
    "Code": 210106,
    "Province": "辽宁省",
    "City": "沈阳市",
    "District": "铁西区",
    "Lng": 123.35862982907395,
    "Lat": 41.8057241676217
    },
    {
    "Code": 210111,
    "Province": "辽宁省",
    "City": "沈阳市",
    "District": "苏家屯区",
    "Lng": 123.42628905168995,
    "Lat": 41.58934515756465
    },
    {
    "Code": 210112,
    "Province": "辽宁省",
    "City": "沈阳市",
    "District": "浑南区",
    "Lng": 123.43279092160505,
    "Lat": 41.808644783515746
    },
    {
    "Code": 210113,
    "Province": "辽宁省",
    "City": "沈阳市",
    "District": "沈北新区",
    "Lng": 123.51869040269712,
    "Lat": 42.04384997610135
    },
    {
    "Code": 210114,
    "Province": "辽宁省",
    "City": "沈阳市",
    "District": "于洪区",
    "Lng": 123.24284697309827,
    "Lat": 41.84355102371217
    },
    {
    "Code": 210115,
    "Province": "辽宁省",
    "City": "沈阳市",
    "District": "辽中区",
    "Lng": 122.77887155118171,
    "Lat": 41.5668601498439
    },
    {
    "Code": 210123,
    "Province": "辽宁省",
    "City": "沈阳市",
    "District": "康平县",
    "Lng": 123.27359808775667,
    "Lat": 42.765540738312566
    },
    {
    "Code": 210124,
    "Province": "辽宁省",
    "City": "沈阳市",
    "District": "法库县",
    "Lng": 123.24889709003406,
    "Lat": 42.41529783956206
    },
    {
    "Code": 210181,
    "Province": "辽宁省",
    "City": "沈阳市",
    "District": "新民市",
    "Lng": 122.86641820399001,
    "Lat": 42.01677619384611
    },
    {
    "Code": 210200,
    "Province": "辽宁省",
    "City": "大连市",
    "District": "",
    "Lng": 121.59347778143518,
    "Lat": 38.94870993830429
    },
    {
    "Code": 210201,
    "Province": "辽宁省",
    "City": "大连市",
    "District": "市辖区",
    "Lng": 121.59347778143518,
    "Lat": 38.94870993830429
    },
    {
    "Code": 210202,
    "Province": "辽宁省",
    "City": "大连市",
    "District": "中山区",
    "Lng": 121.67796628922625,
    "Lat": 38.900436431991984
    },
    {
    "Code": 210203,
    "Province": "辽宁省",
    "City": "大连市",
    "District": "西岗区",
    "Lng": 121.6258229781024,
    "Lat": 38.91336952993919
    },
    {
    "Code": 210204,
    "Province": "辽宁省",
    "City": "大连市",
    "District": "沙河口区",
    "Lng": 121.58261780680284,
    "Lat": 38.921778341674376
    },
    {
    "Code": 210211,
    "Province": "辽宁省",
    "City": "大连市",
    "District": "甘井子区",
    "Lng": 121.5285003794903,
    "Lat": 38.95546176066109
    },
    {
    "Code": 210212,
    "Province": "辽宁省",
    "City": "大连市",
    "District": "旅顺口区",
    "Lng": 121.29593564058723,
    "Lat": 38.90829067300293
    },
    {
    "Code": 210213,
    "Province": "辽宁省",
    "City": "大连市",
    "District": "金州区",
    "Lng": 121.95658248043723,
    "Lat": 39.2986190718601
    },
    {
    "Code": 210214,
    "Province": "辽宁省",
    "City": "大连市",
    "District": "普兰店区",
    "Lng": 122.27425668706105,
    "Lat": 39.620006142510114
    },
    {
    "Code": 210224,
    "Province": "辽宁省",
    "City": "大连市",
    "District": "长海县",
    "Lng": 122.74826454271387,
    "Lat": 39.260108530290275
    },
    {
    "Code": 210281,
    "Province": "辽宁省",
    "City": "大连市",
    "District": "瓦房店市",
    "Lng": 121.7906987887405,
    "Lat": 39.70895639618986
    },
    {
    "Code": 210283,
    "Province": "辽宁省",
    "City": "大连市",
    "District": "庄河市",
    "Lng": 122.9341452670001,
    "Lat": 39.85890978417193
    },
    {
    "Code": 210300,
    "Province": "辽宁省",
    "City": "鞍山市",
    "District": "",
    "Lng": 123.0077633288837,
    "Lat": 41.118743682153465
    },
    {
    "Code": 210301,
    "Province": "辽宁省",
    "City": "鞍山市",
    "District": "市辖区",
    "Lng": 123.0077633288837,
    "Lat": 41.118743682153465
    },
    {
    "Code": 210302,
    "Province": "辽宁省",
    "City": "鞍山市",
    "District": "铁东区",
    "Lng": 123.0207058451798,
    "Lat": 41.118235115557475
    },
    {
    "Code": 210303,
    "Province": "辽宁省",
    "City": "鞍山市",
    "District": "铁西区",
    "Lng": 122.98578619475154,
    "Lat": 41.12787247683256
    },
    {
    "Code": 210304,
    "Province": "辽宁省",
    "City": "鞍山市",
    "District": "立山区",
    "Lng": 123.04047350707964,
    "Lat": 41.164172891852786
    },
    {
    "Code": 210311,
    "Province": "辽宁省",
    "City": "鞍山市",
    "District": "千山区",
    "Lng": 123.01400529455033,
    "Lat": 41.06132852198688
    },
    {
    "Code": 210321,
    "Province": "辽宁省",
    "City": "鞍山市",
    "District": "台安县",
    "Lng": 122.44368252760378,
    "Lat": 41.34709974800354
    },
    {
    "Code": 210323,
    "Province": "辽宁省",
    "City": "鞍山市",
    "District": "岫岩满族自治县",
    "Lng": 123.34606899825529,
    "Lat": 40.4031809952997
    },
    {
    "Code": 210381,
    "Province": "辽宁省",
    "City": "鞍山市",
    "District": "海城市",
    "Lng": 122.79120058219287,
    "Lat": 40.84035424752339
    },
    {
    "Code": 210400,
    "Province": "辽宁省",
    "City": "抚顺市",
    "District": "",
    "Lng": 123.92981976705381,
    "Lat": 41.8773038295909
    },
    {
    "Code": 210401,
    "Province": "辽宁省",
    "City": "抚顺市",
    "District": "市辖区",
    "Lng": 123.92981976705381,
    "Lat": 41.8773038295909
    },
    {
    "Code": 210402,
    "Province": "辽宁省",
    "City": "抚顺市",
    "District": "新抚区",
    "Lng": 123.91136857187887,
    "Lat": 41.86978966066434
    },
    {
    "Code": 210403,
    "Province": "辽宁省",
    "City": "抚顺市",
    "District": "东洲区",
    "Lng": 124.02924934123958,
    "Lat": 41.833588275171124
    },
    {
    "Code": 210404,
    "Province": "辽宁省",
    "City": "抚顺市",
    "District": "望花区",
    "Lng": 123.78599647354824,
    "Lat": 41.86040358877823
    },
    {
    "Code": 210411,
    "Province": "辽宁省",
    "City": "抚顺市",
    "District": "顺城区",
    "Lng": 123.90172355544878,
    "Lat": 41.91601413379593
    },
    {
    "Code": 210421,
    "Province": "辽宁省",
    "City": "抚顺市",
    "District": "抚顺县",
    "Lng": 124.13658883379826,
    "Lat": 41.75007666959148
    },
    {
    "Code": 210422,
    "Province": "辽宁省",
    "City": "抚顺市",
    "District": "新宾满族自治县",
    "Lng": 124.827865564108,
    "Lat": 41.635119411000304
    },
    {
    "Code": 210423,
    "Province": "辽宁省",
    "City": "抚顺市",
    "District": "清原满族自治县",
    "Lng": 124.92431743308903,
    "Lat": 42.11888234479133
    },
    {
    "Code": 210500,
    "Province": "辽宁省",
    "City": "本溪市",
    "District": "",
    "Lng": 123.77806236979248,
    "Lat": 41.32583762664885
    },
    {
    "Code": 210501,
    "Province": "辽宁省",
    "City": "本溪市",
    "District": "市辖区",
    "Lng": 123.77806236979248,
    "Lat": 41.32583762664885
    },
    {
    "Code": 210502,
    "Province": "辽宁省",
    "City": "本溪市",
    "District": "平山区",
    "Lng": 123.69257521576597,
    "Lat": 41.240400691894976
    },
    {
    "Code": 210503,
    "Province": "辽宁省",
    "City": "本溪市",
    "District": "溪湖区",
    "Lng": 123.71186569777889,
    "Lat": 41.45615399333009
    },
    {
    "Code": 210504,
    "Province": "辽宁省",
    "City": "本溪市",
    "District": "明山区",
    "Lng": 123.90173685037034,
    "Lat": 41.34775211045605
    },
    {
    "Code": 210505,
    "Province": "辽宁省",
    "City": "本溪市",
    "District": "南芬区",
    "Lng": 123.82788014761208,
    "Lat": 41.12271622099884
    },
    {
    "Code": 210521,
    "Province": "辽宁省",
    "City": "本溪市",
    "District": "本溪满族自治县",
    "Lng": 124.15856431847263,
    "Lat": 41.19567023391215
    },
    {
    "Code": 210522,
    "Province": "辽宁省",
    "City": "本溪市",
    "District": "桓仁满族自治县",
    "Lng": 125.29002786999817,
    "Lat": 41.26181587712884
    },
    {
    "Code": 210600,
    "Province": "辽宁省",
    "City": "丹东市",
    "District": "",
    "Lng": 124.33854311476908,
    "Lat": 40.1290228266375
    },
    {
    "Code": 210601,
    "Province": "辽宁省",
    "City": "丹东市",
    "District": "市辖区",
    "Lng": 124.33854311476908,
    "Lat": 40.1290228266375
    },
    {
    "Code": 210602,
    "Province": "辽宁省",
    "City": "丹东市",
    "District": "元宝区",
    "Lng": 124.35032097797149,
    "Lat": 40.173197015058
    },
    {
    "Code": 210603,
    "Province": "辽宁省",
    "City": "丹东市",
    "District": "振兴区",
    "Lng": 124.35556286011388,
    "Lat": 40.06703531875242
    },
    {
    "Code": 210604,
    "Province": "辽宁省",
    "City": "丹东市",
    "District": "振安区",
    "Lng": 124.29219665893167,
    "Lat": 40.211546606918645
    },
    {
    "Code": 210624,
    "Province": "辽宁省",
    "City": "丹东市",
    "District": "宽甸满族自治县",
    "Lng": 124.93410611423656,
    "Lat": 40.76614200675351
    },
    {
    "Code": 210681,
    "Province": "辽宁省",
    "City": "丹东市",
    "District": "东港市",
    "Lng": 123.87687027399643,
    "Lat": 39.98121733418355
    },
    {
    "Code": 210682,
    "Province": "辽宁省",
    "City": "丹东市",
    "District": "凤城市",
    "Lng": 124.07296025051131,
    "Lat": 40.57957030665949
    },
    {
    "Code": 210700,
    "Province": "辽宁省",
    "City": "锦州市",
    "District": "",
    "Lng": 121.14774873823639,
    "Lat": 41.13087887591732
    },
    {
    "Code": 210701,
    "Province": "辽宁省",
    "City": "锦州市",
    "District": "市辖区",
    "Lng": 121.14774873823639,
    "Lat": 41.13087887591732
    },
    {
    "Code": 210702,
    "Province": "辽宁省",
    "City": "锦州市",
    "District": "古塔区",
    "Lng": 121.12643374509564,
    "Lat": 41.141388193070334
    },
    {
    "Code": 210703,
    "Province": "辽宁省",
    "City": "锦州市",
    "District": "凌河区",
    "Lng": 121.18266452595095,
    "Lat": 41.134380404259545
    },
    {
    "Code": 210711,
    "Province": "辽宁省",
    "City": "锦州市",
    "District": "太和区",
    "Lng": 121.11864471767971,
    "Lat": 41.13683013275284
    },
    {
    "Code": 210726,
    "Province": "辽宁省",
    "City": "锦州市",
    "District": "黑山县",
    "Lng": 122.26073588725585,
    "Lat": 41.79969788559817
    },
    {
    "Code": 210727,
    "Province": "辽宁省",
    "City": "锦州市",
    "District": "义县",
    "Lng": 121.30187737887663,
    "Lat": 41.534928118312024
    },
    {
    "Code": 210781,
    "Province": "辽宁省",
    "City": "锦州市",
    "District": "凌海市",
    "Lng": 121.28557458802773,
    "Lat": 41.15256615509389
    },
    {
    "Code": 210782,
    "Province": "辽宁省",
    "City": "锦州市",
    "District": "北镇市",
    "Lng": 121.86454971391574,
    "Lat": 41.547118023826975
    },
    {
    "Code": 210800,
    "Province": "辽宁省",
    "City": "营口市",
    "District": "",
    "Lng": 122.23339137079269,
    "Lat": 40.66865106647352
    },
    {
    "Code": 210801,
    "Province": "辽宁省",
    "City": "营口市",
    "District": "市辖区",
    "Lng": 122.23339137079269,
    "Lat": 40.66865106647352
    },
    {
    "Code": 210802,
    "Province": "辽宁省",
    "City": "营口市",
    "District": "站前区",
    "Lng": 122.26559203010335,
    "Lat": 40.703009826764784
    },
    {
    "Code": 210803,
    "Province": "辽宁省",
    "City": "营口市",
    "District": "西市区",
    "Lng": 122.21012624622033,
    "Lat": 40.66694904617983
    },
    {
    "Code": 210804,
    "Province": "辽宁省",
    "City": "营口市",
    "District": "鲅鱼圈区",
    "Lng": 122.17689658107587,
    "Lat": 40.2525844844599
    },
    {
    "Code": 210811,
    "Province": "辽宁省",
    "City": "营口市",
    "District": "老边区",
    "Lng": 122.33090270339245,
    "Lat": 40.67256543757095
    },
    {
    "Code": 210881,
    "Province": "辽宁省",
    "City": "营口市",
    "District": "盖州市",
    "Lng": 122.47732679350948,
    "Lat": 40.235441470469254
    },
    {
    "Code": 210882,
    "Province": "辽宁省",
    "City": "营口市",
    "District": "大石桥市",
    "Lng": 122.57155106236407,
    "Lat": 40.64691545187715
    },
    {
    "Code": 210900,
    "Province": "辽宁省",
    "City": "阜新市",
    "District": "",
    "Lng": 121.66082212856833,
    "Lat": 42.01925010706022
    },
    {
    "Code": 210901,
    "Province": "辽宁省",
    "City": "阜新市",
    "District": "市辖区",
    "Lng": 121.66082212856833,
    "Lat": 42.01925010706022
    },
    {
    "Code": 210902,
    "Province": "辽宁省",
    "City": "阜新市",
    "District": "海州区",
    "Lng": 121.6527051298107,
    "Lat": 41.9909024924696
    },
    {
    "Code": 210903,
    "Province": "辽宁省",
    "City": "阜新市",
    "District": "新邱区",
    "Lng": 121.82432100765892,
    "Lat": 42.0746276194683
    },
    {
    "Code": 210904,
    "Province": "辽宁省",
    "City": "阜新市",
    "District": "太平区",
    "Lng": 121.73775310227339,
    "Lat": 42.00945236251975
    },
    {
    "Code": 210905,
    "Province": "辽宁省",
    "City": "阜新市",
    "District": "清河门区",
    "Lng": 121.44683854847442,
    "Lat": 41.75499843933475
    },
    {
    "Code": 210911,
    "Province": "辽宁省",
    "City": "阜新市",
    "District": "细河区",
    "Lng": 121.62755688739776,
    "Lat": 42.043253678757786
    },
    {
    "Code": 210921,
    "Province": "辽宁省",
    "City": "阜新市",
    "District": "阜新蒙古族自治县",
    "Lng": 121.69557778355127,
    "Lat": 42.15750040815685
    },
    {
    "Code": 210922,
    "Province": "辽宁省",
    "City": "阜新市",
    "District": "彰武县",
    "Lng": 122.47417316389497,
    "Lat": 42.52375443552578
    },
    {
    "Code": 211000,
    "Province": "辽宁省",
    "City": "辽阳市",
    "District": "",
    "Lng": 123.17245120514733,
    "Lat": 41.27333926556943
    },
    {
    "Code": 211001,
    "Province": "辽宁省",
    "City": "辽阳市",
    "District": "市辖区",
    "Lng": 123.17245120514733,
    "Lat": 41.27333926556943
    },
    {
    "Code": 211002,
    "Province": "辽宁省",
    "City": "辽阳市",
    "District": "白塔区",
    "Lng": 123.17516309965141,
    "Lat": 41.27928581685336
    },
    {
    "Code": 211003,
    "Province": "辽宁省",
    "City": "辽阳市",
    "District": "文圣区",
    "Lng": 123.20121638486565,
    "Lat": 41.271122206557244
    },
    {
    "Code": 211004,
    "Province": "辽宁省",
    "City": "辽阳市",
    "District": "宏伟区",
    "Lng": 123.22051827535853,
    "Lat": 41.220763801747516
    },
    {
    "Code": 211005,
    "Province": "辽宁省",
    "City": "辽阳市",
    "District": "弓长岭区",
    "Lng": 123.42628014056126,
    "Lat": 41.14596964640483
    },
    {
    "Code": 211011,
    "Province": "辽宁省",
    "City": "辽阳市",
    "District": "太子河区",
    "Lng": 123.17837427235791,
    "Lat": 41.27459313907113
    },
    {
    "Code": 211021,
    "Province": "辽宁省",
    "City": "辽阳市",
    "District": "辽阳县",
    "Lng": 123.2198212620556,
    "Lat": 41.077281158776266
    },
    {
    "Code": 211081,
    "Province": "辽宁省",
    "City": "辽阳市",
    "District": "灯塔市",
    "Lng": 123.31257357315098,
    "Lat": 41.42009885708579
    },
    {
    "Code": 211100,
    "Province": "辽宁省",
    "City": "盘锦市",
    "District": "",
    "Lng": 122.07322781023007,
    "Lat": 41.14124802295616
    },
    {
    "Code": 211101,
    "Province": "辽宁省",
    "City": "盘锦市",
    "District": "市辖区",
    "Lng": 122.07322781023007,
    "Lat": 41.14124802295616
    },
    {
    "Code": 211102,
    "Province": "辽宁省",
    "City": "盘锦市",
    "District": "双台子区",
    "Lng": 122.0320384364949,
    "Lat": 41.19322451011625
    },
    {
    "Code": 211103,
    "Province": "辽宁省",
    "City": "盘锦市",
    "District": "兴隆台区",
    "Lng": 121.96962911034196,
    "Lat": 41.15583088755934
    },
    {
    "Code": 211104,
    "Province": "辽宁省",
    "City": "盘锦市",
    "District": "大洼区",
    "Lng": 122.09375468863918,
    "Lat": 40.96490778737917
    },
    {
    "Code": 211122,
    "Province": "辽宁省",
    "City": "盘锦市",
    "District": "盘山县",
    "Lng": 121.95216562366241,
    "Lat": 41.193475065521206
    },
    {
    "Code": 211200,
    "Province": "辽宁省",
    "City": "铁岭市",
    "District": "",
    "Lng": 123.85484961461594,
    "Lat": 42.29975701212545
    },
    {
    "Code": 211201,
    "Province": "辽宁省",
    "City": "铁岭市",
    "District": "市辖区",
    "Lng": 123.85484961461594,
    "Lat": 42.29975701212545
    },
    {
    "Code": 211202,
    "Province": "辽宁省",
    "City": "铁岭市",
    "District": "银州区",
    "Lng": 123.8585158688938,
    "Lat": 42.248294823184764
    },
    {
    "Code": 211204,
    "Province": "辽宁省",
    "City": "铁岭市",
    "District": "清河区",
    "Lng": 124.2757801644583,
    "Lat": 42.50855704819172
    },
    {
    "Code": 211221,
    "Province": "辽宁省",
    "City": "铁岭市",
    "District": "铁岭县",
    "Lng": 123.91452868264547,
    "Lat": 42.22276465002401
    },
    {
    "Code": 211223,
    "Province": "辽宁省",
    "City": "铁岭市",
    "District": "西丰县",
    "Lng": 124.73850222789196,
    "Lat": 42.7127394290049
    },
    {
    "Code": 211224,
    "Province": "辽宁省",
    "City": "铁岭市",
    "District": "昌图县",
    "Lng": 123.94640914451168,
    "Lat": 43.00046211616661
    },
    {
    "Code": 211281,
    "Province": "辽宁省",
    "City": "铁岭市",
    "District": "调兵山市",
    "Lng": 123.58434789558939,
    "Lat": 42.44292989053366
    },
    {
    "Code": 211282,
    "Province": "辽宁省",
    "City": "铁岭市",
    "District": "开原市",
    "Lng": 124.28377598099235,
    "Lat": 42.47122328912789
    },
    {
    "Code": 211300,
    "Province": "辽宁省",
    "City": "朝阳市",
    "District": "",
    "Lng": 120.44616270273576,
    "Lat": 41.57182766785653
    },
    {
    "Code": 211301,
    "Province": "辽宁省",
    "City": "朝阳市",
    "District": "市辖区",
    "Lng": 120.44616270273576,
    "Lat": 41.57182766785653
    },
    {
    "Code": 211302,
    "Province": "辽宁省",
    "City": "朝阳市",
    "District": "双塔区",
    "Lng": 120.4840729020373,
    "Lat": 41.60574018955556
    },
    {
    "Code": 211303,
    "Province": "辽宁省",
    "City": "朝阳市",
    "District": "龙城区",
    "Lng": 120.40133294592141,
    "Lat": 41.60622699666226
    },
    {
    "Code": 211321,
    "Province": "辽宁省",
    "City": "朝阳市",
    "District": "朝阳县",
    "Lng": 120.30506072918234,
    "Lat": 41.37279590354719
    },
    {
    "Code": 211322,
    "Province": "辽宁省",
    "City": "朝阳市",
    "District": "建平县",
    "Lng": 119.63252714815414,
    "Lat": 41.842222586594644
    },
    {
    "Code": 211324,
    "Province": "辽宁省",
    "City": "朝阳市",
    "District": "喀喇沁左翼蒙古族自治县",
    "Lng": 119.77553367021963,
    "Lat": 41.143623845035265
    },
    {
    "Code": 211381,
    "Province": "辽宁省",
    "City": "朝阳市",
    "District": "北票市",
    "Lng": 120.81188458747066,
    "Lat": 41.86507103149809
    },
    {
    "Code": 211382,
    "Province": "辽宁省",
    "City": "朝阳市",
    "District": "凌源市",
    "Lng": 119.2715431268339,
    "Lat": 40.9818011283523
    },
    {
    "Code": 211400,
    "Province": "辽宁省",
    "City": "葫芦岛市",
    "District": "",
    "Lng": 120.86075764475588,
    "Lat": 40.743029881317504
    },
    {
    "Code": 211401,
    "Province": "辽宁省",
    "City": "葫芦岛市",
    "District": "市辖区",
    "Lng": 120.86075764475588,
    "Lat": 40.743029881317504
    },
    {
    "Code": 211402,
    "Province": "辽宁省",
    "City": "葫芦岛市",
    "District": "连山区",
    "Lng": 120.68836078009728,
    "Lat": 40.88853734011743
    },
    {
    "Code": 211403,
    "Province": "辽宁省",
    "City": "葫芦岛市",
    "District": "龙港区",
    "Lng": 120.9045859705877,
    "Lat": 40.75099271048868
    },
    {
    "Code": 211404,
    "Province": "辽宁省",
    "City": "葫芦岛市",
    "District": "南票区",
    "Lng": 120.6646450654811,
    "Lat": 41.1370357837713
    },
    {
    "Code": 211421,
    "Province": "辽宁省",
    "City": "葫芦岛市",
    "District": "绥中县",
    "Lng": 120.02630174191806,
    "Lat": 40.30512900582333
    },
    {
    "Code": 211422,
    "Province": "辽宁省",
    "City": "葫芦岛市",
    "District": "建昌县",
    "Lng": 119.83489152944476,
    "Lat": 40.716827705586056
    },
    {
    "Code": 211481,
    "Province": "辽宁省",
    "City": "葫芦岛市",
    "District": "兴城市",
    "Lng": 120.47552727234101,
    "Lat": 40.596284243831505
    },
    {
    "Code": 220000,
    "Province": "吉林省",
    "City": "",
    "District": "",
    "Lng": 126.26287593077805,
    "Lat": 43.67884618524125
    },
    {
    "Code": 220100,
    "Province": "吉林省",
    "City": "长春市",
    "District": "",
    "Lng": 125.31364242720072,
    "Lat": 43.89833760709784
    },
    {
    "Code": 220101,
    "Province": "吉林省",
    "City": "长春市",
    "District": "市辖区",
    "Lng": 125.31364242720072,
    "Lat": 43.89833760709784
    },